,OBJECTID,CFID,CF_GROUP,CF_CATEGORY,CF_SUBCATEGORY,CF_NAMEAR,CF_NAMEENG,CF_LONG,CF_LAT,REGIONNAMEAR,REGIONNAMEENG,DISTRICTNAMEAR,DISTRICTNAMEENG,CMNTYNAMEAR,CMNTYNAMEENG,CF_PHONE,CF_EMAIL,CF_FAX,CF_POBOX,LGRPNAME,LGRPINDEX,LAYERNAME,LAYERINDEX,longitude,latitude
0,38752,DED-3,"Accommodation, Eating & Drinking",Eating & Drinking,Restaurant,الهدف الملكي  للتموين الغذائي,ROYAL TARGET FOOD CATRING,52.80447388,23.9156456,المنطقة الغربية,Western Region,غياثي,Ghayathi,غياثي الصناعية,Ghayathi Industrial Area,,,,,Eating and Drinking,30,Restaurant,32,52.80447387999999,23.915645600000005
1,38753,DED-4,"Accommodation, Eating & Drinking",Eating & Drinking,Restaurant,مطعم ابوحمزة,ABU HAMZA RESTAURANT,52.80363474,23.91439216,المنطقة الغربية,Western Region,غياثي,Ghayathi,غياثي الصناعية,Ghayathi Industrial Area,8743101,,8741282,77605,Eating and Drinking,30,Restaurant,32,52.80363474000001,23.914392159999977
2,38796,DED-256,"Accommodation, Eating & Drinking",Eating & Drinking,Restaurant,مطعم لؤلؤ دلما,LU LU DELMA RESTAURANT,52.30932617,24.47936249,المنطقة الغربية,Western Region,جزيرة دلما,Dalma Island,دلما,Dalma Island,8782005,,,50669,Eating and Drinking,30,Restaurant,32,52.30932617000002,24.479362490000028
3,38797,DED-257,"Accommodation, Eating & Drinking",Eating & Drinking,Restaurant,مطعم النبلاء,AL NUBLA RESTAURANT,52.30618858,24.48235512,المنطقة الغربية,Western Region,جزيرة دلما,Dalma Island,دلما,Dalma Island,8781146,,8782124,50741,Eating and Drinking,30,Restaurant,32,52.306188580000025,24.482355120000022
4,38798,DED-258,"Accommodation, Eating & Drinking",Eating & Drinking,Restaurant,مطعم نجمة الرويس,STAR OF AL ROWEIS RESTAURANT,53.45246896,24.05785057,المنطقة الغربية,Western Region,المرفأ,Al Marfa,المرفأ 1,Mr1,8833559,,,77081,Eating and Drinking,30,Restaurant,32,53.452468959999976,24.057850570000028
5,38799,DED-259,"Accommodation, Eating & Drinking",Eating & Drinking,Restaurant,مطعم ساحل المرفأ,AL MARFA COAST RESTAURANT,53.45246896,24.05785057,المنطقة الغربية,Western Region,المرفأ,Al Marfa,المرفأ 1,Mr1,6152016,asseel2@hotmail.com,0,113150,Eating and Drinking,30,Restaurant,32,53.452468959999976,24.057850570000028
6,38803,DED-264,"Accommodation, Eating & Drinking",Eating & Drinking,Restaurant,مطعم قذلان,QATHLAN RESTAURANT,53.70544815,23.65388584,المنطقة الغربية,Western Region,مدينة زايد,Madinat Zayed,الشعبية القديمة ,ALSabaabiah Akaddimah,28846765,,,57693,Eating and Drinking,30,Restaurant,32,53.705448149999995,23.653885839999987
7,38804,DED-265,"Accommodation, Eating & Drinking",Eating & Drinking,Restaurant,مطعم الوسيم,AL WASEEM RESTAURANT,53.70544815,23.65388584,المنطقة الغربية,Western Region,مدينة زايد,Madinat Zayed,الشعبية القديمة ,ALSabaabiah Akaddimah,8846427,,,50398,Eating and Drinking,30,Restaurant,32,53.705448149999995,23.653885839999987
8,38805,DED-266,"Accommodation, Eating & Drinking",Eating & Drinking,Restaurant,مطعم باقر,BAQR RESTUARANT,53.70519483,23.65366234,المنطقة الغربية,Western Region,مدينة زايد,Madinat Zayed,الشعبية القديمة ,ALSabaabiah Akaddimah,8847911,,,58337,Eating and Drinking,30,Restaurant,32,53.70519482999998,23.653662339999983
9,38844,DED-267,"Accommodation, Eating & Drinking",Eating & Drinking,Restaurant,مطعم مدينة زايد,MADINA ZAYED RESTAURANT,53.70544815,23.65388584,المنطقة الغربية,Western Region,مدينة زايد,Madinat Zayed,الشعبية القديمة ,ALSabaabiah Akaddimah,6998412,,,57547,Eating and Drinking,30,Restaurant,32,53.705448149999995,23.653885839999987
10,38850,DED-294,"Accommodation, Eating & Drinking",Eating & Drinking,Restaurant,مطعم المشيرة,AL MUSHAIRA RESTAURANT,53.79697037,23.1361351,المنطقة الغربية,Western Region,ليوا,Liwa,محضر مزيرعة,Mizerah,8846050,,,50057,Eating and Drinking,30,Restaurant,32,53.79697037,23.13613509999999
11,38851,DED-295,"Accommodation, Eating & Drinking",Eating & Drinking,Restaurant,مطعم الحضاره,AL HADARA RESTAURANT,53.79931259,23.13272476,المنطقة الغربية,Western Region,ليوا,Liwa,محضر مزيرعة,Mizerah,28822678,,,73060,Eating and Drinking,30,Restaurant,32,53.79931259,23.132724759999974
12,38853,DED-297,"Accommodation, Eating & Drinking",Eating & Drinking,Restaurant,مطعم الازدهار,AL IZDIHAR RESTAURANT,53.79597282,23.13418007,المنطقة الغربية,Western Region,ليوا,Liwa,محضر مزيرعة,Mizerah,,,8822486,57991,Eating and Drinking,30,Restaurant,32,53.795972819999974,23.134180070000014
13,38895,DED-382,"Accommodation, Eating & Drinking",Eating & Drinking,Restaurant,مطعم الركن اللبناني,LEBANESE CORNER RESTAURANT,53.73026085,23.66297722,المنطقة الغربية,Western Region,مدينة زايد,Madinat Zayed,المنطقة الصناعية,Industrial Area,,,,3192,Eating and Drinking,30,Restaurant,32,53.73026084999998,23.662977220000016
14,38897,DED-384,"Accommodation, Eating & Drinking",Eating & Drinking,Restaurant,مطعم باب القمر,GATE MOON RESTAURANT,53.72702599,23.65926552,المنطقة الغربية,Western Region,مدينة زايد,Madinat Zayed,المنطقة الصناعية,Industrial Area,28847440,,,110204,Eating and Drinking,30,Restaurant,32,53.727025990000016,23.65926552000002
15,38898,DED-386,"Accommodation, Eating & Drinking",Eating & Drinking,Restaurant,مطعم ثانى الرميثى,THANI AL RUMAITHY RESTAURANT,53.49062347,24.09341812,المنطقة الغربية,Western Region,المرفأ,Al Marfa,المرفأ,Al Marfa,8833066,,,77186,Eating and Drinking,30,Restaurant,32,53.49062347,24.093418120000024
16,38904,DED-399,"Accommodation, Eating & Drinking",Eating & Drinking,Restaurant,مطعم محمد شاه,MOHAMMED SHAH RESTAURANT,53.72412491,23.6597929,المنطقة الغربية,Western Region,مدينة زايد,Madinat Zayed,المنطقة الصناعية,Industrial Area,26336590,,,294018,Eating and Drinking,30,Restaurant,32,53.72412491,23.659792900000014
17,38905,DED-400,"Accommodation, Eating & Drinking",Eating & Drinking,Restaurant,مطعم رمز الوفاء,ALWAFA CODE RESTAURANT,53.72550583,23.65640831,المنطقة الغربية,Western Region,مدينة زايد,Madinat Zayed,المنطقة الصناعية,Industrial Area,,,,77075,Eating and Drinking,30,Restaurant,32,53.725505829999975,23.656408310000018
18,38942,DED-318,"Accommodation, Eating & Drinking",Eating & Drinking,Restaurant,مطعم خلاص النخيل,KHLASS ALNAKEE  RESTAURANT,53.460380549999996,24.05666351,المنطقة الغربية,Western Region,المرفأ,Al Marfa,المرفأ 2,Mr2,,,,,Eating and Drinking,30,Restaurant,32,53.460380550000025,24.05666351000002
19,38943,DED-327,"Accommodation, Eating & Drinking",Eating & Drinking,Restaurant,مطعم غفوركاس تاتوكادا,CAFOORKKAS THATTUKADA RESTAURENT,53.72204971,23.65480518,المنطقة الغربية,Western Region,مدينة زايد,Madinat Zayed,المنطقة الصناعية,Industrial Area,,,,90929,Eating and Drinking,30,Restaurant,32,53.72204971000002,23.654805179999983
20,38944,DED-328,"Accommodation, Eating & Drinking",Eating & Drinking,Restaurant,مطعم الهبة,AL HIBA RESTAURANT,53.72148705,23.65774155,المنطقة الغربية,Western Region,مدينة زايد,Madinat Zayed,المنطقة الصناعية,Industrial Area,8847818,,,58279,Eating and Drinking,30,Restaurant,32,53.72148705000001,23.657741550000026
21,38945,DED-329,"Accommodation, Eating & Drinking",Eating & Drinking,Restaurant,مطعم المندى,AL MANDI RESTAURANT,53.72148693,23.65774232,المنطقة الغربية,Western Region,مدينة زايد,Madinat Zayed,المنطقة الصناعية,Industrial Area,8841711,,,50398,Eating and Drinking,30,Restaurant,32,53.721486930000026,23.65774232000001
22,38947,DED-331,"Accommodation, Eating & Drinking",Eating & Drinking,Restaurant,مطعم دايموند,DIAMOND RESTAURANT,53.72578049,23.6594429,المنطقة الغربية,Western Region,مدينة زايد,Madinat Zayed,المنطقة الصناعية,Industrial Area,,,,57610,Eating and Drinking,30,Restaurant,32,53.72578048999998,23.659442899999988
23,38950,DED-343,"Accommodation, Eating & Drinking",Eating & Drinking,Restaurant,مطعم كوخ البرجر - فرع,BURGER HUT RESTAURANT - BRANCH,53.70423248,23.65960673,المنطقة الغربية,Western Region,مدينة زايد,Madinat Zayed,شرق 6,Mze6,,,,,Eating and Drinking,30,Restaurant,32,53.70423247999997,23.659606730000007
24,38951,DED-344,"Accommodation, Eating & Drinking",Eating & Drinking,Restaurant,مطعم بوبايز -ذ.م.م - فرع 10,POPEYES REATAURANT- L.L.C - BRANCH 10,53.70423248,23.65960673,المنطقة الغربية,Western Region,مدينة زايد,Madinat Zayed,شرق 6,Mze6,,,,,Eating and Drinking,30,Restaurant,32,53.70423247999997,23.659606730000007
25,38952,DED-345,"Accommodation, Eating & Drinking",Eating & Drinking,Restaurant,مطعم اللذيذ,TASTY RESTAURANT,53.70317738,23.65870866,المنطقة الغربية,Western Region,مدينة زايد,Madinat Zayed,شرق 6,Mze6,8844224,,8847640,50098,Eating and Drinking,30,Restaurant,32,53.70317738,23.658708660000002
26,38953,DED-346,"Accommodation, Eating & Drinking",Eating & Drinking,Restaurant,مطعم جارليك,GARLIC RESTAURANT,53.70403481,23.65960693,المنطقة الغربية,Western Region,مدينة زايد,Madinat Zayed,شرق 6,Mze6,,,,,Eating and Drinking,30,Restaurant,32,53.704034809999996,23.659606929999995
27,38994,DED-363,"Accommodation, Eating & Drinking",Eating & Drinking,Restaurant,مطعم شاطئ الراحه,COMFORT BEACH RESTAURANT,51.77031517,24.05987167,المنطقة الغربية,Western Region,بعيا_السلع,Bayah Al Sila,بعيا الصناعية,Bayah Industrial Area,8728281,al7ooot_f_y@hotmail.com,,76784,Eating and Drinking,30,Restaurant,32,51.77031517,24.059871670000007
28,38997,DED-367,"Accommodation, Eating & Drinking",Eating & Drinking,Restaurant,مطعم النافورة,ALNAFOORA RESTAURANT,53.70186615,23.65895844,المنطقة الغربية,Western Region,مدينة زايد,Madinat Zayed,غرب 2,Mzw2,8847400,,8844309,50436,Eating and Drinking,30,Restaurant,32,53.70186615,23.658958439999992
29,38998,DED-368,"Accommodation, Eating & Drinking",Eating & Drinking,Restaurant,مطعم تراث الغربية,WESTERN HERITAGE RESTAURANT,53.70451355,23.65337944,المنطقة الغربية,Western Region,مدينة زايد,Madinat Zayed,غرب 2,Mzw2,28846050,,,50057,Eating and Drinking,30,Restaurant,32,53.70451355,23.65337943999998
30,39001,DED-373,"Accommodation, Eating & Drinking",Eating & Drinking,Restaurant,مطعم ومشاوي ملك اللولو,LULU KING RESTAURANT & GRILLS,53.47627724,24.08067079,المنطقة الغربية,Western Region,المرفأ,Al Marfa,المرفأ 5,Mr5,,,,,Eating and Drinking,30,Restaurant,32,53.47627724,24.08067079
31,40265,DED-4424,"Accommodation, Eating & Drinking",Eating & Drinking,Restaurant,مطعم رمز الوحدة,RAMZ AL WAHDA RESTURANT,55.33043289,24.45984364,العين,Al Ain,سويحان,SWEIHAN,نهشيلة,Nahshilah,7347437,,,10019,Eating and Drinking,30,Restaurant,32,55.33043289,24.459843639999974
32,40266,DED-4425,"Accommodation, Eating & Drinking",Eating & Drinking,Restaurant,مطعم الراشدي,AL RASHEDI RESTAURANT,55.33028793,24.46006966,العين,Al Ain,سويحان,SWEIHAN,نهشيلة,Nahshilah,7347367,,,10202,Eating and Drinking,30,Restaurant,32,55.33028793,24.460069659999988
33,40267,DED-4426,"Accommodation, Eating & Drinking",Eating & Drinking,Restaurant,مطعم الهبوب,AL HABOB  RESTAURANT,55.41417122,24.3219223,العين,Al Ain,سويحان,SWEIHAN,بدع السمح,Bida Al Samah,7815904,habob@abudhabi.net.ae,,69291,Eating and Drinking,30,Restaurant,32,55.414171220000014,24.321922299999983
34,40271,DED-4431,"Accommodation, Eating & Drinking",Eating & Drinking,Restaurant,مطعم الاخوان,BROTHERS RESTAURANT,55.46219826,24.22772026,العين,Al Ain,الساد,AL SAAD,رملة الساد,Ramlat Al Saad,7815216,,,17182,Eating and Drinking,30,Restaurant,32,55.46219825999998,24.227720260000012
35,40273,DED-4433,"Accommodation, Eating & Drinking",Eating & Drinking,Restaurant,مطعم الاكلات الشعبية,POPULAR MEALS RESTAURANT,55.3349781,24.18466377,العين,Al Ain,رماح,REMAH,الخورة 1,Al Khowrah 1,7372228,,,14775,Eating and Drinking,30,Restaurant,32,55.3349781,24.184663769999986
36,40274,DED-4434,"Accommodation, Eating & Drinking",Eating & Drinking,Restaurant,مطعم بشارة,BESHARA RESTAURANT,55.33918762,24.18532372,العين,Al Ain,رماح,REMAH,الخورة 1,Al Khowrah 1,7372256,,,80244,Eating and Drinking,30,Restaurant,32,55.33918762000002,24.185323719999985
37,40275,DED-4435,"Accommodation, Eating & Drinking",Eating & Drinking,Restaurant,مطعم قمر رماح - ذ.م.م.,REMAH MOON RESTURANT - L.L.C.,55.33405685,24.18594742,العين,Al Ain,رماح,REMAH,الخورة 1,Al Khowrah 1,7372731,,,18327,Eating and Drinking,30,Restaurant,32,55.334056850000024,24.18594741999999
38,40276,DED-4436,"Accommodation, Eating & Drinking",Eating & Drinking,Restaurant,مطعم اضواء الحرمين,AL HARAMIN LIGHT RESTAURANT,55.04514694,24.17963505,العين,Al Ain,الخزنة,AL KHAZNAH,الخزنة 1,Al Khaznah 1,,,,67310,Eating and Drinking,30,Restaurant,32,55.045146939999995,24.17963505
39,40277,DED-4438,"Accommodation, Eating & Drinking",Eating & Drinking,Restaurant,مطعم السنديان,AL SENDIAN RESTAURANT,55.75805283,24.22146606,العين,Al Ain,وسط المدينة,CENTRAL DISTRICT,حي القصر,Hai Al Qasr,7545415,,,65301,Eating and Drinking,30,Restaurant,32,55.75805283,24.22146606000001
40,40278,DED-4788,"Accommodation, Eating & Drinking",Eating & Drinking,Restaurant,مطعم كوخ الدجاج,CHICKEN HUT RESTAURANT,55.74581909,24.21784878,العين,Al Ain,الجاهلي,AL JAHILI,المساقي,Al Masagi,7559010,AIN69662@abudhabi.net.ae,7555496,23185,Eating and Drinking,30,Restaurant,32,55.74581909,24.217848779999997
41,40280,DED-4790,"Accommodation, Eating & Drinking",Eating & Drinking,Restaurant,مطعم محمد علي,MOHAMMAD ALI RESTAURANT,55.7562561,24.212882999999998,العين,Al Ain,الجاهلي,AL JAHILI,المرايغ,Al Marayegh,7553522,,,90725,Eating and Drinking,30,Restaurant,32,55.75625609999997,24.212882999999977
42,40281,DED-4791,"Accommodation, Eating & Drinking",Eating & Drinking,Restaurant,مطعم و كافتيريا ناصر عيسى,NASSER EISA RESTURANT & CAFTERIA,55.75522232,24.20703888,العين,Al Ain,المطاوعة,AL MUTAWA'A,حي المطاوعة,Hai Al Mutawaa,7224190,_,,86410,Eating and Drinking,30,Restaurant,32,55.75522231999997,24.207038880000027
43,40282,DED-4792,"Accommodation, Eating & Drinking",Eating & Drinking,Restaurant,مطعم وكوفي شوب باغيت ذ.م.م,BAGUETTE RESTAURANT & COFFEE SHOP L.L.C.,55.76091385,24.30440521,العين,Al Ain,هيلي,HILI,النايفة1,Al Nayfa 1,6276442,,6276441,273963,Eating and Drinking,30,Restaurant,32,55.76091385000001,24.304405210000027
44,40285,DED-4795,"Accommodation, Eating & Drinking",Eating & Drinking,Restaurant,مطعم سفارى,SAFARI RESTAURANT,55.77888489,24.21349335,العين,Al Ain,وسط المدينة,CENTRAL DISTRICT,النيادات,Al Nyadat,7662897,,,15372,Eating and Drinking,30,Restaurant,32,55.77888488999997,24.21349335000002
45,40288,DED-4798,"Accommodation, Eating & Drinking",Eating & Drinking,Restaurant,مطعم الفيحاء الحديث,AL FAYHA' MODERN RESTAURANT,55.77661896,24.21604347,العين,Al Ain,وسط المدينة,CENTRAL DISTRICT,حي الحصن,Hai Al Hisn,7662410,,,15870,Eating and Drinking,30,Restaurant,32,55.77661896000001,24.21604346999999
46,40289,DED-4799,"Accommodation, Eating & Drinking",Eating & Drinking,Restaurant,مطعم دانه ( توصية بسيطة),DANAH  RESTAURANT,55.7756958,24.21744537,العين,Al Ain,وسط المدينة,CENTRAL DISTRICT,حي الحصن,Hai Al Hisn,7654829,,,17189,Eating and Drinking,30,Restaurant,32,55.775695799999994,24.217445370000007
47,40303,DED-4031,"Accommodation, Eating & Drinking",Eating & Drinking,Restaurant,مطعم عبير البحر,ABEER AL BAHR RESTURANT,54.64899063,24.60364819,أبوظبي,Abu Dhabi,الصدر,Al Sader,الصدر أ,Al Sader A,5639255,jalaa82@yahoo.com,,110821,Eating and Drinking,30,Restaurant,32,54.648990630000014,24.60364819
48,40307,DED-4035,"Accommodation, Eating & Drinking",Eating & Drinking,Restaurant,مطعم المقام ذ م م,AL MAQAM RESTAURANT L L C,54.49695778,24.35173416,أبوظبي,Abu Dhabi,مصفح,Musaffah,مصفح  37,M37,5513143,,,130661,Eating and Drinking,30,Restaurant,32,54.49695778,24.351734159999978
49,40308,DED-4036,"Accommodation, Eating & Drinking",Eating & Drinking,Restaurant,مطعم طباخ العرب,ARAB COOK RESTAURANT,54.49401093,24.35406876,أبوظبي,Abu Dhabi,مصفح,Musaffah,مصفح  37,M37,,,,91652,Eating and Drinking,30,Restaurant,32,54.49401093,24.35406876000002
50,40309,DED-4037,"Accommodation, Eating & Drinking",Eating & Drinking,Restaurant,مطعم ركن المقام,AL MAQAM CORNER  RESTAURANT,54.49981499,24.34877205,أبوظبي,Abu Dhabi,مصفح,Musaffah,مصفح  37,M37,5520234,,,129856,Eating and Drinking,30,Restaurant,32,54.499814990000004,24.34877204999998
51,40310,DED-4043,"Accommodation, Eating & Drinking",Eating & Drinking,Restaurant,مطعم فرسان الامارات,FURSAN AL EMARAT RESTAURANT,54.50619316,24.40724564,أبوظبي,Abu Dhabi,منطقة المقطع,Al Maqta Area,مقطع 8,MQ8,5588141,FURSAN @abudhabi.ae,,71496,Eating and Drinking,30,Restaurant,32,54.50619316000001,24.407245639999985
52,40318,DED-4448,"Accommodation, Eating & Drinking",Eating & Drinking,Restaurant,مطعم عالم الطعام - فرع العين,FOOD WORLD RESTAURANT - ALAIN BRANCH,55.76436615,24.22148228,العين,Al Ain,وسط المدينة,CENTRAL DISTRICT,الربينة,Al Rubainah,7640330,,7640334,87297,Eating and Drinking,30,Restaurant,32,55.76436615,24.221482279999975
53,40320,DED-4468,"Accommodation, Eating & Drinking",Eating & Drinking,Restaurant,مطعم الاجواء - فرع,AL AJWA RESTAURANT - BRANCH,55.5933342,24.20431519,العين,Al Ain,السلامات,AL SALAMAT,السلامات 1,Al Salamat 1,7347090,,,10089,Eating and Drinking,30,Restaurant,32,55.593334200000015,24.20431518999999
54,40321,DED-4469,"Accommodation, Eating & Drinking",Eating & Drinking,Restaurant,مطعم نور الايام,NOOR AL AYAM RESTAURANT,55.58607101,24.21179199,العين,Al Ain,السلامات,AL SALAMAT,السلامات 1,Al Salamat 1,7834450,,,68470,Eating and Drinking,30,Restaurant,32,55.58607101000001,24.211791989999995
55,40322,DED-4472,"Accommodation, Eating & Drinking",Eating & Drinking,Restaurant,مطعم نادر,NADER RESTAURANT,55.75102615,24.56065559,العين,Al Ain,الهير,AL HAYER,غمض,Ghummad,7322627,,,21267,Eating and Drinking,30,Restaurant,32,55.75102614999997,24.56065559000001
56,40323,DED-4473,"Accommodation, Eating & Drinking",Eating & Drinking,Restaurant,مطعم فاز هانجاتيل,VAZHANGATTIL RESTAURANT,55.74435806,24.57544518,العين,Al Ain,الهير,AL HAYER,غمض,Ghummad,37321614,,,21492,Eating and Drinking,30,Restaurant,32,55.744358060000025,24.575445179999974
57,40328,DED-4800,"Accommodation, Eating & Drinking",Eating & Drinking,Restaurant,مطعم التعاون - فرع,AL TAAWON RESTAURANT - BRANCH,55.77504349,24.2184515,العين,Al Ain,وسط المدينة,CENTRAL DISTRICT,حي الحصن,Hai Al Hisn,7664252,,,1791,Eating and Drinking,30,Restaurant,32,55.77504348999997,24.218451500000015
58,40329,DED-4801,"Accommodation, Eating & Drinking",Eating & Drinking,Restaurant,مطعم العائلات,AL AAILAT RESTAURANT,55.77555084,24.21767426,العين,Al Ain,وسط المدينة,CENTRAL DISTRICT,حي الحصن,Hai Al Hisn,37656509,,,24870,Eating and Drinking,30,Restaurant,32,55.775550839999994,24.217674260000024
59,40330,DED-4802,"Accommodation, Eating & Drinking",Eating & Drinking,Restaurant,مطعم ابوحلب,ABU HALAB RESTAURANT,55.7768898,24.2156105,العين,Al Ain,وسط المدينة,CENTRAL DISTRICT,حي الحصن,Hai Al Hisn,7644413,,7664947,15129,Eating and Drinking,30,Restaurant,32,55.77688979999999,24.215610500000025
60,40331,DED-4803,"Accommodation, Eating & Drinking",Eating & Drinking,Restaurant,مطعم ابوحلب - فرع,ABU HALAB RESTAURANT - BRANCH,55.77701187,24.21539402,العين,Al Ain,وسط المدينة,CENTRAL DISTRICT,حي الحصن,Hai Al Hisn,,,,,Eating and Drinking,30,Restaurant,32,55.777011870000024,24.21539402000002
61,40332,DED-4804,"Accommodation, Eating & Drinking",Eating & Drinking,Restaurant,مطعم أبومنصور الجابري,ABU MANSOUR CAFETERIA,55.77639389,24.21638203,العين,Al Ain,وسط المدينة,CENTRAL DISTRICT,حي الحصن,Hai Al Hisn,7645881,,,83415,Eating and Drinking,30,Restaurant,32,55.77639389000001,24.216382029999977
62,40334,DED-4807,"Accommodation, Eating & Drinking",Eating & Drinking,Restaurant,مطعم الفروج الطازج - فرع المناصير,AL FARROUJ AL TAZAJ RESTAURANT - BRANCH ALMNASIR,55.71986198,24.20722008,العين,Al Ain,المويجعي,AL MUWAIJI,الرويكة,Al Ruwaikah,,,,20937,Eating and Drinking,30,Restaurant,32,55.71986198000002,24.207220080000013
63,40340,DED-4813,"Accommodation, Eating & Drinking",Eating & Drinking,Restaurant,مطعم انور,ANWAR RESTAURANT,55.76593399,24.28646278,العين,Al Ain,هيلي,HILI,الرميلة,Al Rumailah,7845811,,,1676,Eating and Drinking,30,Restaurant,32,55.76593399000001,24.286462780000022
64,40356,DED-4051,"Accommodation, Eating & Drinking",Eating & Drinking,Restaurant,مطعم القبائل,AL QABAIL RESTAURANT,54.63995135,24.29576285,أبوظبي,Abu Dhabi,بنى ياس,Baniyas,بني ياس شرق 8,EB8,5832959,,5834458,10733,Eating and Drinking,30,Restaurant,32,54.63995134999999,24.295762850000017
65,40360,DED-4055,"Accommodation, Eating & Drinking",Eating & Drinking,Restaurant,مطعم السمكة الفضية,SILVER FISH RESTAURANT,54.63727188,24.297842029999998,أبوظبي,Abu Dhabi,بنى ياس,Baniyas,بني ياس شرق 8,EB8,5835840,SILVERFISH@abudhabi.net.ae,0,57138,Eating and Drinking,30,Restaurant,32,54.637271880000014,24.297842030000027
66,40361,DED-4056,"Accommodation, Eating & Drinking",Eating & Drinking,Restaurant,مطعم استراحه الامارات - ذ م م,EMIRATES RESIDENCE RESTAURANT -  L L C,54.63315954,24.29345524,أبوظبي,Abu Dhabi,بنى ياس,Baniyas,بني ياس شرق 8,EB8,5823501,,,10866,Eating and Drinking,30,Restaurant,32,54.63315954000001,24.293455240000014
67,40362,DED-4057,"Accommodation, Eating & Drinking",Eating & Drinking,Restaurant,مطعم وكافتيريا زهرة الامارات,EMIRATES FLOWER CAFETERIA,54.63716316,24.29550362,أبوظبي,Abu Dhabi,بنى ياس,Baniyas,بني ياس شرق 8,EB8,5833214,,,10837,Eating and Drinking,30,Restaurant,32,54.63716316,24.295503619999977
68,40363,DED-4058,"Accommodation, Eating & Drinking",Eating & Drinking,Restaurant,مطعم الارض الحارة,HOT LAND RESTAURANT,54.63680797,24.29578276,أبوظبي,Abu Dhabi,بنى ياس,Baniyas,بني ياس شرق 8,EB8,,,,,Eating and Drinking,30,Restaurant,32,54.63680797000001,24.29578276000001
69,40367,DED-4479,"Accommodation, Eating & Drinking",Eating & Drinking,Restaurant,مطعم وكافتيريا سلفر ساندس,SILVER SANDS RESTAURANT & CAFETERIA,55.76229095,24.22445011,العين,Al Ain,وسط المدينة,CENTRAL DISTRICT,حي قصيدة,Hai Qesaidah,37668584,,,83462,Eating and Drinking,30,Restaurant,32,55.76229095000002,24.22445011000002
70,40368,DED-4480,"Accommodation, Eating & Drinking",Eating & Drinking,Restaurant,مطعم وكافتيريا البشرى,ALBUSHRA RESTAURANT & CAFETERIA,55.76068687,24.22154427,العين,Al Ain,وسط المدينة,CENTRAL DISTRICT,حي قصيدة,Hai Qesaidah,37642051,evjaleel@yahoo.com,,1437,Eating and Drinking,30,Restaurant,32,55.76068686999997,24.22154426999998
71,40369,DED-4481,"Accommodation, Eating & Drinking",Eating & Drinking,Restaurant,مطعم جبل الورد,JABAL AL WARD RESTAURANT,55.76412582,24.22303486,العين,Al Ain,وسط المدينة,CENTRAL DISTRICT,حي قصيدة,Hai Qesaidah,7641308,,,23951,Eating and Drinking,30,Restaurant,32,55.764125820000004,24.223034859999984
72,40370,DED-4482,"Accommodation, Eating & Drinking",Eating & Drinking,Restaurant,مطعم وكافتيريا الملاح - فرع,AL MALLAH CAFETERIA & RESTAURANT - BRANCH,55.76400375,24.22504234,العين,Al Ain,وسط المدينة,CENTRAL DISTRICT,حي قصيدة,Hai Qesaidah,,,,80672,Eating and Drinking,30,Restaurant,32,55.76400374999997,24.225042340000016
73,40371,DED-4483,"Accommodation, Eating & Drinking",Eating & Drinking,Restaurant,مطعم وكافيتريا الفوار,AL FAWAR CAFETERIA AND RESTAURANT,55.76232529,24.22486115,العين,Al Ain,وسط المدينة,CENTRAL DISTRICT,حي قصيدة,Hai Qesaidah,7664600,,,16000,Eating and Drinking,30,Restaurant,32,55.76232528999998,24.22486114999998
74,40372,DED-4484,"Accommodation, Eating & Drinking",Eating & Drinking,Restaurant,مطعم وكافيتيريا كوئتة الجديد,NEW KUTA RESTAURANT NAD CAFETERIA,55.76042175,24.22149277,العين,Al Ain,وسط المدينة,CENTRAL DISTRICT,حي قصيدة,Hai Qesaidah,7663304,,,18177,Eating and Drinking,30,Restaurant,32,55.76042174999998,24.221492769999998
75,40373,DED-4485,"Accommodation, Eating & Drinking",Eating & Drinking,Restaurant,مطعم الفروج الطازج  ذ م م - فرع العين,FRESH CHICKEN FRESH CHICKEN RESTAURANT LLC - ALAIN BRANCH LLC -,55.76066589,24.22467232,العين,Al Ain,وسط المدينة,CENTRAL DISTRICT,حي قصيدة,Hai Qesaidah,7519997,,7555646,20937,Eating and Drinking,30,Restaurant,32,55.760665889999984,24.224672320000025
76,40378,DED-4814,"Accommodation, Eating & Drinking",Eating & Drinking,Restaurant,مطعم نصيب,NASEEB RESTAURANT,55.76593399,24.28646278,العين,Al Ain,هيلي,HILI,الرميلة,Al Rumailah,37845612,,,81752,Eating and Drinking,30,Restaurant,32,55.76593399000001,24.286462780000022
77,40379,DED-4815,"Accommodation, Eating & Drinking",Eating & Drinking,Restaurant,مطعم الفيصل,AL FAISAL RESTAURANT,55.74591255,24.26945496,العين,Al Ain,القطارة,AL QATTARA,المراغة,Al Mragha,37631792,,,82396,Eating and Drinking,30,Restaurant,32,55.745912550000014,24.26945496000002
78,40381,DED-4817,"Accommodation, Eating & Drinking",Eating & Drinking,Restaurant,مطعم مسافي,MASAFI RESTAURANT,55.7395401,24.26166058,العين,Al Ain,الجيمي,AL JIMI,المريجب,Al Mraijeb,7634372,,,15499,Eating and Drinking,30,Restaurant,32,55.7395401,24.26166058000001
79,40383,DED-4819,"Accommodation, Eating & Drinking",Eating & Drinking,Restaurant,مطعم وكافتيريا لولو,LULU RESTAURANT AND CAFETERIA,55.73930168,24.25735283,العين,Al Ain,الجيمي,AL JIMI,العامرية,Al Ameriya,7828893,,,18632,Eating and Drinking,30,Restaurant,32,55.73930167999998,24.257352830000002
80,40384,DED-4820,"Accommodation, Eating & Drinking",Eating & Drinking,Restaurant,مطعم ابو عامر,ABU AMER RESTAURANT,55.73919296,24.25321388,العين,Al Ain,الجيمي,AL JIMI,العامرية,Al Ameriya,7634573,,,14800,Eating and Drinking,30,Restaurant,32,55.739192960000025,24.253213879999976
81,40388,DED-4826,"Accommodation, Eating & Drinking",Eating & Drinking,Restaurant,مطعم سور الصين - فرع 1,CHINA WALL RESTAURANT - BRANCH 1,55.72702789,24.24408722,العين,Al Ain,الجيمي,AL JIMI,عقدة العامرية,Ugdat Al Ameriya,7510105,AIN110088@abudhabi.net.ae,7510152,23430,Eating and Drinking,30,Restaurant,32,55.72702788999999,24.244087219999983
82,40389,DED-4827,"Accommodation, Eating & Drinking",Eating & Drinking,Restaurant,مطعم الارشاد,AL ERSHAD RESTAURANT,55.72451591,24.2428093,العين,Al Ain,الجيمي,AL JIMI,عقدة العامرية,Ugdat Al Ameriya,7620492,,,67394,Eating and Drinking,30,Restaurant,32,55.72451590999998,24.242809299999976
83,40390,DED-4828,"Accommodation, Eating & Drinking",Eating & Drinking,Restaurant,مطعم سهيل,SUHAIL RESTAURANT,55.72451591,24.2428093,العين,Al Ain,الجيمي,AL JIMI,عقدة العامرية,Ugdat Al Ameriya,7631561,,,16750,Eating and Drinking,30,Restaurant,32,55.72451590999998,24.242809299999976
84,40404,DED-4125,"Accommodation, Eating & Drinking",Eating & Drinking,Restaurant,مطعم الاوبرج,L AUBRGE RESTAURANT,54.3617382,24.49352837,أبوظبي,Abu Dhabi,جزيرة أبوظبى,Abu Dhabi Island,شرق 7,E7,6273070,,6271769,7722,Eating and Drinking,30,Restaurant,32,54.36173819999999,24.49352836999998
85,40411,DED-4142,"Accommodation, Eating & Drinking",Eating & Drinking,Restaurant,مطعم سيالكوت,SIALKOT RESTAURANT,54.36044884,24.49188995,أبوظبي,Abu Dhabi,جزيرة أبوظبى,Abu Dhabi Island,شرق 5,E5,6266256,,,72541,Eating and Drinking,30,Restaurant,32,54.360448840000004,24.491889949999972
86,40412,DED-4143,"Accommodation, Eating & Drinking",Eating & Drinking,Restaurant,مطعم بيت السرور,HAPPY HOUSE RESTAURANT,54.35817909,24.49101639,أبوظبي,Abu Dhabi,جزيرة أبوظبى,Abu Dhabi Island,شرق 5,E5,6274316,,6347641,72350,Eating and Drinking,30,Restaurant,32,54.35817909000002,24.491016390000027
87,40413,DED-4144,"Accommodation, Eating & Drinking",Eating & Drinking,Restaurant,مطعم و مقهى الصخرة,THE ROCK RESTURANT & COFFE SHOP,54.35926819,24.49174309,أبوظبي,Abu Dhabi,جزيرة أبوظبى,Abu Dhabi Island,شرق 5,E5,,,,,Eating and Drinking,30,Restaurant,32,54.35926819000002,24.49174309
88,40414,DED-4145,"Accommodation, Eating & Drinking",Eating & Drinking,Restaurant,مطعم الشوكة الذهبية - ذ.م.م - فرع ابوظبي 2,GOLDEN FORK RESTAURANT LLC - ABU DHABI BRANCH 2,54.36022758,24.49173355,أبوظبي,Abu Dhabi,جزيرة أبوظبى,Abu Dhabi Island,شرق 5,E5,,,,,Eating and Drinking,30,Restaurant,32,54.360227580000014,24.491733549999992
89,40415,DED-4146,"Accommodation, Eating & Drinking",Eating & Drinking,Restaurant,هانوي مطعم وكافيه ذ م م,HANOI RESTAURANT & CAFE - LLC,54.36044884,24.49188995,أبوظبي,Abu Dhabi,جزيرة أبوظبى,Abu Dhabi Island,شرق 5,E5,6261112,hanoicafe@hotmail.com,6261641,43416,Eating and Drinking,30,Restaurant,32,54.360448840000004,24.491889949999972
90,40417,DED-4517,"Accommodation, Eating & Drinking",Eating & Drinking,Restaurant,مطعم البراحة,AL BARAHA RESTURANT,55.75839043,24.22703171,العين,Al Ain,وسط المدينة,CENTRAL DISTRICT,حي الحميرة,Hai Al Humaira,7666717,,,14608,Eating and Drinking,30,Restaurant,32,55.75839043000002,24.227031710000006
91,40418,DED-4518,"Accommodation, Eating & Drinking",Eating & Drinking,Restaurant,مطعم الشوكة الذهبية ذ م م  ـ فرع,AL SHAWKA AL THAHABEYYA RESTAURANT L L C - BRANCH,55.76102448,24.22558212,العين,Al Ain,وسط المدينة,CENTRAL DISTRICT,حي الحميرة,Hai Al Humaira,7660336,,,18072,Eating and Drinking,30,Restaurant,32,55.76102448,24.225582120000013
92,40419,DED-4519,"Accommodation, Eating & Drinking",Eating & Drinking,Restaurant,مطعم ومشاوي الصفدي اللبناني,AL SAFADY RESTAURANT & GRILLS AL LEBON,55.7628212,24.22578907,العين,Al Ain,وسط المدينة,CENTRAL DISTRICT,حي الحميرة,Hai Al Humaira,7655331,,,24116,Eating and Drinking,30,Restaurant,32,55.76282120000002,24.22578907000002
93,40420,DED-4520,"Accommodation, Eating & Drinking",Eating & Drinking,Restaurant,مطعم و مشاوي الخروف الذهبي,GOLDEN SHEEP RESTAURANT,55.7593174,24.22539711,العين,Al Ain,وسط المدينة,CENTRAL DISTRICT,حي الحميرة,Hai Al Humaira,7655743,,,16013,Eating and Drinking,30,Restaurant,32,55.759317399999986,24.225397110000017
94,40421,DED-4521,"Accommodation, Eating & Drinking",Eating & Drinking,Restaurant,مطعم الصقر,FALCON RESTAURANT,55.76427841,24.22595406,العين,Al Ain,وسط المدينة,CENTRAL DISTRICT,حي الحميرة,Hai Al Humaira,7645414,,,17538,Eating and Drinking,30,Restaurant,32,55.764278409999974,24.225954059999992
95,40423,DED-4535,"Accommodation, Eating & Drinking",Eating & Drinking,Restaurant,مطعم ومشاوي الكباب الخاص,AL KABAB AL KHAS RESTUARANT AND GRILLS,55.76607513,24.22779655,العين,Al Ain,وسط المدينة,CENTRAL DISTRICT,حي المضيف,Hai Al Madheef,7517512,,,1904,Eating and Drinking,30,Restaurant,32,55.76607512999999,24.227796549999994
96,40429,DED-4829,"Accommodation, Eating & Drinking",Eating & Drinking,Restaurant,مطعم انديان كاري,INDIAN CARRY RESTAURANT,55.72702789,24.24408722,العين,Al Ain,الجيمي,AL JIMI,عقدة العامرية,Ugdat Al Ameriya,7628188,,7551663,80378,Eating and Drinking,30,Restaurant,32,55.72702788999999,24.244087219999983
97,40430,DED-4830,"Accommodation, Eating & Drinking",Eating & Drinking,Restaurant,مطعم اورينتال كوزين,ORIENTAL CUISINE RESTURANT,55.72702789,24.24408722,العين,Al Ain,الجيمي,AL JIMI,عقدة العامرية,Ugdat Al Ameriya,7633202,,7216622,15962,Eating and Drinking,30,Restaurant,32,55.72702788999999,24.244087219999983
98,40431,DED-4831,"Accommodation, Eating & Drinking",Eating & Drinking,Restaurant,مطعم توب فايف,TOP FIVE RESTAURANT,55.7244091,24.24337959,العين,Al Ain,الجيمي,AL JIMI,عقدة العامرية,Ugdat Al Ameriya,7516424,,7643458,18177,Eating and Drinking,30,Restaurant,32,55.7244091,24.243379590000018
99,40436,DED-4856,"Accommodation, Eating & Drinking",Eating & Drinking,Restaurant,مطعم وكافتيريا جبل المدينة,JABAL AL MADEYNA CAFETERIA& RESTAURANT,55.70622444,24.23519897,العين,Al Ain,الخبيصي,AL KHABISI,الزعفران,Al Zaafaran,7613713,,,80204,Eating and Drinking,30,Restaurant,32,55.70622444000003,24.23519897
100,40439,DED-4859,"Accommodation, Eating & Drinking",Eating & Drinking,Restaurant,مطعم الرواحة,AL RUWAHA RESTAURANT,55.69872475,24.23340607,العين,Al Ain,الخبيصي,AL KHABISI,المريال,Al Meryal,7611068,,,83529,Eating and Drinking,30,Restaurant,32,55.69872475,24.23340607
101,40441,DED-5923,"Accommodation, Eating & Drinking",Eating & Drinking,Restaurant,مطعم كافتيريا الكلحه - فرع,AL KALHA CAFETERIA & RESTAURANT - BRANCH,54.35639572,24.47867107,أبوظبي,Abu Dhabi,جزيرة أبوظبى,Abu Dhabi Island,غرب 4,W4,6450116,,,27751,Eating and Drinking,30,Restaurant,32,54.35639572000002,24.47867107000002
102,40442,DED-5924,"Accommodation, Eating & Drinking",Eating & Drinking,Restaurant,مطعم كاولون الصيني - ذ م م,KAWLOON CHINESE  RESTAURANT -  L LC,54.354701999999996,24.47741508,أبوظبي,Abu Dhabi,جزيرة أبوظبى,Abu Dhabi Island,غرب 4,W4,6343436,,,27259,Eating and Drinking,30,Restaurant,32,54.354701999999975,24.477415080000014
103,40443,DED-5925,"Accommodation, Eating & Drinking",Eating & Drinking,Restaurant,مطعم وكافتيريا الباراشوت الذهبي,PARACHUTE GOLDEN CAFETERIA & RESTAURANT,54.3546524,24.47831345,أبوظبي,Abu Dhabi,جزيرة أبوظبى,Abu Dhabi Island,غرب 4,W4,6333173,,6312229,28525,Eating and Drinking,30,Restaurant,32,54.35465240000002,24.478313449999973
104,40444,DED-5926,"Accommodation, Eating & Drinking",Eating & Drinking,Restaurant,البندر للماكولات الشعبية,AL BANDER POPULAR MEALS RESTURANT,54.35355759,24.47596073,أبوظبي,Abu Dhabi,جزيرة أبوظبى,Abu Dhabi Island,غرب 4,W4,,,,,Eating and Drinking,30,Restaurant,32,54.35355758999998,24.475960729999997
105,40445,DED-5927,"Accommodation, Eating & Drinking",Eating & Drinking,Restaurant,مطعم ملك المندي الطازج,KING MINDI FRESH RESTUARANT,54.3529377,24.47693443,أبوظبي,Abu Dhabi,جزيرة أبوظبى,Abu Dhabi Island,غرب 4,W4,,,,130692,Eating and Drinking,30,Restaurant,32,54.352937699999984,24.47693442999997
106,40446,DED-5928,"Accommodation, Eating & Drinking",Eating & Drinking,Restaurant,الفرن الإيطالي للمأكولات,ILFORNO ITALEN FOOD,54.35425949,24.47799492,أبوظبي,Abu Dhabi,جزيرة أبوظبى,Abu Dhabi Island,غرب 4,W4,6337730,,6456711,51605,Eating and Drinking,30,Restaurant,32,54.354259490000004,24.477994920000015
107,40447,DED-5929,"Accommodation, Eating & Drinking",Eating & Drinking,Restaurant,مطعم فودبى العربى - ذ م م - فرع,ARAB UDUPI RESTAURANT - L L C - BRANCH,54.3529377,24.47693443,أبوظبي,Abu Dhabi,جزيرة أبوظبى,Abu Dhabi Island,غرب 4,W4,6781334,udupi@emirates.net.ae,6794198,46519,Eating and Drinking,30,Restaurant,32,54.352937699999984,24.47693442999997
108,40448,DED-5930,"Accommodation, Eating & Drinking",Eating & Drinking,Restaurant,مطعم المنصورى,AL MANSOURY RESTAURANT,54.35601234,24.47788429,أبوظبي,Abu Dhabi,جزيرة أبوظبى,Abu Dhabi Island,غرب 4,W4,6219001,,,42756,Eating and Drinking,30,Restaurant,32,54.35601234000001,24.47788429000002
109,40449,DED-5931,"Accommodation, Eating & Drinking",Eating & Drinking,Restaurant,مطعم زهرة دمشق,DAMASCUS FLOWER RESTAURANT,54.35355759,24.47596073,أبوظبي,Abu Dhabi,جزيرة أبوظبى,Abu Dhabi Island,غرب 4,W4,6652831,,6652876,39117,Eating and Drinking,30,Restaurant,32,54.35355758999998,24.475960729999997
110,40450,DED-5932,"Accommodation, Eating & Drinking",Eating & Drinking,Restaurant,مطعم جاد - فرع,GAD RESTAURANT - BRANCH,54.35074693,24.47446746,أبوظبي,Abu Dhabi,جزيرة أبوظبى,Abu Dhabi Island,غرب 4,W4,6674544,,,32177,Eating and Drinking,30,Restaurant,32,54.350746930000014,24.474467460000028
111,40451,DED-5933,"Accommodation, Eating & Drinking",Eating & Drinking,Restaurant,بلو ليلى ـ ذ م م,BLUE LILY,54.35425912,24.47799517,أبوظبي,Abu Dhabi,جزيرة أبوظبى,Abu Dhabi Island,غرب 4,W4,6337748,bluelily@ameinfo.com,6348902,71859,Eating and Drinking,30,Restaurant,32,54.354259119999995,24.477995169999986
112,40452,DED-5934,"Accommodation, Eating & Drinking",Eating & Drinking,Restaurant,مطعم امنة,AMINA RESTAURANT,54.35621452,24.47804832,أبوظبي,Abu Dhabi,جزيرة أبوظبى,Abu Dhabi Island,غرب 4,W4,6334910,,,37635,Eating and Drinking,30,Restaurant,32,54.35621451999998,24.478048320000028
113,40453,DED-4147,"Accommodation, Eating & Drinking",Eating & Drinking,Restaurant,مطعم قصر المدينة الجديد,NEW CITY PALACE RESTAURANT,54.35878754,24.49071312,أبوظبي,Abu Dhabi,جزيرة أبوظبى,Abu Dhabi Island,شرق 5,E5,,,,,Eating and Drinking,30,Restaurant,32,54.35878753999998,24.49071312000001
114,40454,DED-4154,"Accommodation, Eating & Drinking",Eating & Drinking,Restaurant,مطعم نودل باول - فرع ابوظبي,NOODL BOWL RESTAURANT -  ABU DHABI BRANCH,54.46128464,24.41474533,أبوظبي,Abu Dhabi,جزيرة أبوظبى,Abu Dhabi Island,غرب 57,W57,,,,105609,Eating and Drinking,30,Restaurant,32,54.461284639999974,24.414745330000017
115,40455,DED-4156,"Accommodation, Eating & Drinking",Eating & Drinking,Restaurant,مطعم باك بنجاب,PAK PUNJAB RESTAURANT,54.51348648,24.35374979,أبوظبي,Abu Dhabi,مصفح,Musaffah,مصفح  32_1,M32_01,5514070,,5545130,12913,Eating and Drinking,30,Restaurant,32,54.51348647999998,24.353749789999995
116,40456,DED-4157,"Accommodation, Eating & Drinking",Eating & Drinking,Restaurant,مطعم المدينة الملكى,ROYAL CITY RESTAURANT,54.51315689,24.35444355,أبوظبي,Abu Dhabi,مصفح,Musaffah,مصفح  32_1,M32_01,5513433,,,9596,Eating and Drinking,30,Restaurant,32,54.513156890000005,24.354443549999985
117,40457,DED-4162,"Accommodation, Eating & Drinking",Eating & Drinking,Restaurant,مطعم صحراء المدينة,SAHAR AL MADEENA RESTAURANT,54.51466942,24.34820938,أبوظبي,Abu Dhabi,مصفح,Musaffah,مصفح  34,M34,,,,71698,Eating and Drinking,30,Restaurant,32,54.51466942000002,24.348209380000014
118,40459,DED-4168,"Accommodation, Eating & Drinking",Eating & Drinking,Restaurant,مطعم الطبق الاخضر,GREEN PLATE RESTAURANT,54.48974609,24.35921669,أبوظبي,Abu Dhabi,مصفح,Musaffah,مصفح  17,M17,,,,25791,Eating and Drinking,30,Restaurant,32,54.48974608999998,24.359216689999982
119,40460,DED-4169,"Accommodation, Eating & Drinking",Eating & Drinking,Restaurant,مطعم 24 ساعه,24  HOURS  RESTURANT,54.48481369,24.3645153,أبوظبي,Abu Dhabi,مصفح,Musaffah,مصفح  17,M17,5556767,,,46917,Eating and Drinking,30,Restaurant,32,54.48481369000001,24.364515299999994
120,40461,DED-4170,"Accommodation, Eating & Drinking",Eating & Drinking,Restaurant,مطعم القصر الذهبى - ذ م م,GOLDEN PALACE RESTAURANT - L L C,54.48435211,24.36334896,أبوظبي,Abu Dhabi,مصفح,Musaffah,مصفح  17,M17,5500340,,,34330,Eating and Drinking,30,Restaurant,32,54.484352109999975,24.363348959999996
121,40462,DED-4171,"Accommodation, Eating & Drinking",Eating & Drinking,Restaurant,مطعم شكيل خان,SHAKEEL  KHAN RESTAURANT,54.48971939,24.35976219,أبوظبي,Abu Dhabi,مصفح,Musaffah,مصفح  17,M17,,,,14959,Eating and Drinking,30,Restaurant,32,54.489719390000005,24.359762190000026
122,40467,DED-4548,"Accommodation, Eating & Drinking",Eating & Drinking,Restaurant,مطعم الباب الذهبي,GOLDEN GATE RESTAURANT,55.7688942,24.22395515,العين,Al Ain,وسط المدينة,CENTRAL DISTRICT,حي السلامة,Hai Al Salama,7662467,,,16942,Eating and Drinking,30,Restaurant,32,55.76889419999998,24.223955149999995
123,40468,DED-4549,"Accommodation, Eating & Drinking",Eating & Drinking,Restaurant,مطعم و حلويات الجمال المغربي,RESTAURANT  & SWEETS MAROCCAN BEAUTY,55.76688194,24.22457314,العين,Al Ain,وسط المدينة,CENTRAL DISTRICT,حي السلامة,Hai Al Salama,,,,80013,Eating and Drinking,30,Restaurant,32,55.76688194000002,24.224573140000018
124,40469,DED-4550,"Accommodation, Eating & Drinking",Eating & Drinking,Restaurant,مطعم بخارة,BUKHARA RESTAURANT,55.76688194,24.22457314,العين,Al Ain,وسط المدينة,CENTRAL DISTRICT,حي السلامة,Hai Al Salama,7660059,,,15166,Eating and Drinking,30,Restaurant,32,55.76688194000002,24.224573140000018
125,40470,DED-4551,"Accommodation, Eating & Drinking",Eating & Drinking,Restaurant,المطعم الممتاز,SUPER RESTAURANT,55.76919365,24.22329712,العين,Al Ain,وسط المدينة,CENTRAL DISTRICT,حي السلامة,Hai Al Salama,7665010,,,16942,Eating and Drinking,30,Restaurant,32,55.76919364999998,24.223297119999984
126,40471,DED-4552,"Accommodation, Eating & Drinking",Eating & Drinking,Restaurant,مطعم البارجيل,AL BARJEEL RESTAURANT,55.76688194,24.22457314,العين,Al Ain,وسط المدينة,CENTRAL DISTRICT,حي السلامة,Hai Al Salama,7664554,,,84971,Eating and Drinking,30,Restaurant,32,55.76688194000002,24.224573140000018
127,40475,DED-4569,"Accommodation, Eating & Drinking",Eating & Drinking,Restaurant,مطعم الشوامس,AL SHAWAMIS RESTAURANT,55.77237701,24.21987724,العين,Al Ain,وسط المدينة,CENTRAL DISTRICT,حي السوق,Hai Al Nawaser,,,,17537,Eating and Drinking,30,Restaurant,32,55.772377010000014,24.219877240000017
128,40481,DED-4864,"Accommodation, Eating & Drinking",Eating & Drinking,Restaurant,مطعم الفروج الطازج  ذ م م -  فرع العين,FRESH CHICKEN RESTAURANT LLC - AL AIN BRANCH,55.64638519,24.19301605,العين,Al Ain,المقام,AL MAQAM,توام,Twam,,,,,Eating and Drinking,30,Restaurant,32,55.64638518999999,24.193016049999983
129,40482,DED-4865,"Accommodation, Eating & Drinking",Eating & Drinking,Restaurant,مطعم و كافتيريا مهرة البحر,MAHARAT ALBAHAR CAFETERIA & RESTAURANT,55.64638519,24.19301605,العين,Al Ain,المقام,AL MAQAM,توام,Twam,7677433,,,18407,Eating and Drinking,30,Restaurant,32,55.64638518999999,24.193016049999983
130,40519,DED-4616,"Accommodation, Eating & Drinking",Eating & Drinking,Restaurant,مطعم الجسر الذهبي,AL JESR AL DHAHABI RESTAURANT,55.77357674,24.22134399,العين,Al Ain,وسط المدينة,CENTRAL DISTRICT,حي المربعة,Hai Al Murabbaa,7512276,,,19103,Eating and Drinking,30,Restaurant,32,55.77357674000001,24.22134398999998
131,40520,DED-4617,"Accommodation, Eating & Drinking",Eating & Drinking,Restaurant,مطعم الظبي,AL DHABI RESTURANT,55.77358246,24.22238541,العين,Al Ain,وسط المدينة,CENTRAL DISTRICT,حي المربعة,Hai Al Murabbaa,7660822,,,83945,Eating and Drinking,30,Restaurant,32,55.77358246,24.222385410000015
132,40521,DED-4618,"Accommodation, Eating & Drinking",Eating & Drinking,Restaurant,مطعم السالم,AL SALEM RESTAURANT,55.77388,24.22131062,العين,Al Ain,وسط المدينة,CENTRAL DISTRICT,حي المربعة,Hai Al Murabbaa,7667359,mads@eim.ae,,14855,Eating and Drinking,30,Restaurant,32,55.77388000000002,24.221310619999997
133,40522,DED-4619,"Accommodation, Eating & Drinking",Eating & Drinking,Restaurant,مطعم اضواء العين,ADHWAA AL AIN RESTAURANT,55.77388,24.22131062,العين,Al Ain,وسط المدينة,CENTRAL DISTRICT,حي المربعة,Hai Al Murabbaa,7661972,,7669458,24156,Eating and Drinking,30,Restaurant,32,55.77388000000002,24.221310619999997
134,40523,DED-4620,"Accommodation, Eating & Drinking",Eating & Drinking,Restaurant,المطعم النباتي,VEGETARIAN RESTAURANT,55.77184105,24.22184753,العين,Al Ain,وسط المدينة,CENTRAL DISTRICT,حي المربعة,Hai Al Murabbaa,37654145,,,1980,Eating and Drinking,30,Restaurant,32,55.77184104999998,24.22184752999999
135,40524,DED-4621,"Accommodation, Eating & Drinking",Eating & Drinking,Restaurant,مطعم مسلم,MOSLEM RESTAURANT,55.7709465,24.2234211,العين,Al Ain,وسط المدينة,CENTRAL DISTRICT,حي المربعة,Hai Al Murabbaa,7654158,,,18177,Eating and Drinking,30,Restaurant,32,55.77094649999998,24.223421099999996
136,40528,DED-4875,"Accommodation, Eating & Drinking",Eating & Drinking,Restaurant,مطعم المعارف,AL MAREF RESTAURANT,55.62691689,24.18449783,العين,Al Ain,المقام,AL MAQAM,شعبية المقام,Shabiyat Al Maqam,7681960,,,81457,Eating and Drinking,30,Restaurant,32,55.62691689000002,24.184497829999998
137,40529,DED-4876,"Accommodation, Eating & Drinking",Eating & Drinking,Restaurant,مطعم ومقهى شعبيات الكوفة,SHAABIYAT AL KOUFA RESTAURANT & CAFE,55.62908936,24.18448067,العين,Al Ain,المقام,AL MAQAM,شعبية المقام,Shabiyat Al Maqam,7551662,,,80378,Eating and Drinking,30,Restaurant,32,55.62908936000002,24.184480670000028
138,40530,DED-4877,"Accommodation, Eating & Drinking",Eating & Drinking,Restaurant,مطعم سلمى,SALMA RESTAURANT,55.62499428,24.19181442,العين,Al Ain,المقام,AL MAQAM,شعبية المقام,Shabiyat Al Maqam,7681662,,,81395,Eating and Drinking,30,Restaurant,32,55.62499428000001,24.191814420000014
139,40531,DED-4878,"Accommodation, Eating & Drinking",Eating & Drinking,Restaurant,مطعم جعفر,JAAFAR RESTAURANT,55.62831116,24.18507767,العين,Al Ain,المقام,AL MAQAM,شعبية المقام,Shabiyat Al Maqam,7682647,,,24312,Eating and Drinking,30,Restaurant,32,55.62831116000001,24.18507767
140,40532,DED-4882,"Accommodation, Eating & Drinking",Eating & Drinking,Restaurant,مطعم نور الامانة,NOOR ALAMANA RESTAURANT,55.66743279,24.2015419,العين,Al Ain,عشارج,ASHAREJ,بدع بن عمار,Bida Bin Ammar,37671379,,,86159,Eating and Drinking,30,Restaurant,32,55.66743279000002,24.201541899999995
141,40533,DED-4884,"Accommodation, Eating & Drinking",Eating & Drinking,Restaurant,مطعم سلامة,SALAMA RESTAURANT,55.80427551,24.33899307,العين,Al Ain,الفوعة,AL FOAH,مصيبيخ,Msaibeekh,7832386,,,32863,Eating and Drinking,30,Restaurant,32,55.804275510000025,24.338993070000015
142,40534,DED-4885,"Accommodation, Eating & Drinking",Eating & Drinking,Restaurant,مطعم وكافتيريا أصدقاء هيلي,HILI FRIENDS RESTAURANT & CAFETERIA,55.78212166,24.30327606,العين,Al Ain,هيلي,HILI,عقدة الحصون,Ugdat Al Husoon,,,,54984,Eating and Drinking,30,Restaurant,32,55.78212165999997,24.303276059999973
143,40535,DED-4886,"Accommodation, Eating & Drinking",Eating & Drinking,Restaurant,مطعم المعمورة,AL MAMOURA RESTAURANT,55.56657982,23.63933372,العين,Al Ain,الوقن,AL WAGAN,رملة الديما,Ramlat Addimah,7351691,,,21691,Eating and Drinking,30,Restaurant,32,55.566579820000015,23.639333720000025
144,40536,DED-4887,"Accommodation, Eating & Drinking",Eating & Drinking,Restaurant,مطعم عالم الغد,AL AM  AL GHAD  RESTAURANT,55.56614304,23.63937569,العين,Al Ain,الوقن,AL WAGAN,رملة الديما,Ramlat Addimah,7351478,moth-hela@msn.com,,97893,Eating and Drinking,30,Restaurant,32,55.566143039999986,23.63937569000001
145,40540,DED-5912,"Accommodation, Eating & Drinking",Eating & Drinking,Restaurant,مطعم الحيل,AL HEEL RESTAURANT,54.35673523,24.47998524,أبوظبي,Abu Dhabi,جزيرة أبوظبى,Abu Dhabi Island,غرب 4,W4,6215116,alheel@abudhabi.net.ae,,35265,Eating and Drinking,30,Restaurant,32,54.35673523000003,24.47998524000002
146,40542,DED-5914,"Accommodation, Eating & Drinking",Eating & Drinking,Restaurant,مطعم القرية الفرعونية - ذ م م - فرع,PHARAO VILLAGE RESTAUARANT - L L C - BRANCH,54.35408973,24.47584335,أبوظبي,Abu Dhabi,جزيرة أبوظبى,Abu Dhabi Island,غرب 4,W4,,,,,Eating and Drinking,30,Restaurant,32,54.35408973,24.47584334999999
147,40543,DED-5915,"Accommodation, Eating & Drinking",Eating & Drinking,Restaurant,مطعم شمس,SHAMS RESTAURANT,54.35357666,24.47732353,أبوظبي,Abu Dhabi,جزيرة أبوظبى,Abu Dhabi Island,غرب 4,W4,6210176,,,108760,Eating and Drinking,30,Restaurant,32,54.35357665999999,24.47732352999998
148,40544,DED-5916,"Accommodation, Eating & Drinking",Eating & Drinking,Restaurant,مطعم الاتحاد,UNION RESTAURANT,54.3597126,24.47903442,أبوظبي,Abu Dhabi,جزيرة أبوظبى,Abu Dhabi Island,غرب 4,W4,26346162,,,41049,Eating and Drinking,30,Restaurant,32,54.35971260000002,24.479034420000005
149,40545,DED-5917,"Accommodation, Eating & Drinking",Eating & Drinking,Restaurant,بيت المندي والمظبي  ذ م م,AL MANDI & AL MADHBI HOUSE  L L C,54.35594559,24.47693443,أبوظبي,Abu Dhabi,جزيرة أبوظبى,Abu Dhabi Island,غرب 4,W4,6341133,,,47712,Eating and Drinking,30,Restaurant,32,54.355945589999976,24.47693442999997
150,40546,DED-5918,"Accommodation, Eating & Drinking",Eating & Drinking,Restaurant,مطعم العباسى الجديد,AL ABBASI NEW RESTAURANT,54.35727501,24.47838974,أبوظبي,Abu Dhabi,جزيرة أبوظبى,Abu Dhabi Island,غرب 4,W4,6313561,,,26397,Eating and Drinking,30,Restaurant,32,54.35727501000002,24.47838974000001
151,40547,DED-5919,"Accommodation, Eating & Drinking",Eating & Drinking,Restaurant,مطعم صاج جدودنا - ذ م م - فرع,SAJ JUDOODNA RESTAURANT - LLC - BRANCH,54.35779619,24.47880834,أبوظبي,Abu Dhabi,جزيرة أبوظبى,Abu Dhabi Island,غرب 4,W4,,,,,Eating and Drinking,30,Restaurant,32,54.35779618999999,24.47880834
152,40548,DED-5920,"Accommodation, Eating & Drinking",Eating & Drinking,Restaurant,مطعم شبل الفداء,SHIBL  ALFEDAA  RESTURANT,54.35779381,24.47880554,أبوظبي,Abu Dhabi,جزيرة أبوظبى,Abu Dhabi Island,غرب 4,W4,6762502,,,113938,Eating and Drinking,30,Restaurant,32,54.357793809999976,24.478805539999996
153,40549,DED-5921,"Accommodation, Eating & Drinking",Eating & Drinking,Restaurant,مطعم  سيبو,CEBU  RESTAURANT,54.3529377,24.47693443,أبوظبي,Abu Dhabi,جزيرة أبوظبى,Abu Dhabi Island,غرب 4,W4,6652886,DUBAI00I@HOTMAIL.COM,,34961,Eating and Drinking,30,Restaurant,32,54.352937699999984,24.47693442999997
154,40550,DED-5922,"Accommodation, Eating & Drinking",Eating & Drinking,Restaurant,المطعم  الذهبي  البينوى,ALPINOY   GOLDEN  RESTAURANT,54.3586235,24.47897911,أبوظبي,Abu Dhabi,جزيرة أبوظبى,Abu Dhabi Island,غرب 4,W4,6342527,,6228569,113168,Eating and Drinking,30,Restaurant,32,54.35862350000002,24.47897911000001
155,40552,DED-4192,"Accommodation, Eating & Drinking",Eating & Drinking,Restaurant,مطعم فودبى العربى - ذ م م - فرع,ARAB UDUPI RESTAURANT - L L C - BRANCH,54.36733818,24.47439575,أبوظبي,Abu Dhabi,جزيرة أبوظبى,Abu Dhabi Island,شرق 18_1,E18_01,6781334,udupi@emirates.net.ae,6794198,46519,Eating and Drinking,30,Restaurant,32,54.36733817999999,24.474395749999985
156,40553,DED-4193,"Accommodation, Eating & Drinking",Eating & Drinking,Restaurant,مطعم ومشاوى اسطنبولى,ISTANBULI RESTAURANT & GRILLS,54.36703297,24.47640915,أبوظبي,Abu Dhabi,جزيرة أبوظبى,Abu Dhabi Island,شرق 18_1,E18_01,6333874,got2003@hotmail.com,6313818,4261,Eating and Drinking,30,Restaurant,32,54.367032970000025,24.476409149999995
157,40554,DED-4194,"Accommodation, Eating & Drinking",Eating & Drinking,Restaurant,مطعم الصديق ذ م م,AL SIDDIQ RESTAURANT LLC,54.37062875,24.47767102,أبوظبي,Abu Dhabi,جزيرة أبوظبى,Abu Dhabi Island,شرق 18_1,E18_01,,,,,Eating and Drinking,30,Restaurant,32,54.37062874999998,24.477671020000002
158,40555,DED-4195,"Accommodation, Eating & Drinking",Eating & Drinking,Restaurant,مطعم الفلك,-AL FALAK RESTAURANT,54.36929642,24.47242673,أبوظبي,Abu Dhabi,جزيرة أبوظبى,Abu Dhabi Island,شرق 18_1,E18_01,,,,,Eating and Drinking,30,Restaurant,32,54.36929642000001,24.472426729999995
159,40556,DED-4196,"Accommodation, Eating & Drinking",Eating & Drinking,Restaurant,مطعم الاختيار,SELECT RESTAURANT,54.36727715,24.47649193,أبوظبي,Abu Dhabi,جزيرة أبوظبى,Abu Dhabi Island,شرق 18_1,E18_01,6416587,,,27207,Eating and Drinking,30,Restaurant,32,54.36727715000001,24.47649193000001
160,40557,DED-4197,"Accommodation, Eating & Drinking",Eating & Drinking,Restaurant,مطعم السناء,AL SANA RESTAURANT,54.37366104,24.47299004,أبوظبي,Abu Dhabi,جزيرة أبوظبى,Abu Dhabi Island,شرق 18_1,E18_01,6415603,,,28116,Eating and Drinking,30,Restaurant,32,54.37366104,24.472990040000013
161,40558,DED-4198,"Accommodation, Eating & Drinking",Eating & Drinking,Restaurant,مطعم خيمة ملك المندي,KHYMAT MALK ALMANDI RESTUARANT,54.36773682,24.47681236,أبوظبي,Abu Dhabi,جزيرة أبوظبى,Abu Dhabi Island,شرق 18_1,E18_01,6418858,,,130662,Eating and Drinking,30,Restaurant,32,54.367736820000005,24.476812359999997
162,40559,DED-4199,"Accommodation, Eating & Drinking",Eating & Drinking,Restaurant,مطعم الراشدية,AL RASHIDIYYA RESTAURANT,54.37230596,24.47204614,أبوظبي,Abu Dhabi,جزيرة أبوظبى,Abu Dhabi Island,شرق 18_1,E18_01,6421388,,,107864,Eating and Drinking,30,Restaurant,32,54.372305960000006,24.472046139999975
163,40560,DED-4200,"Accommodation, Eating & Drinking",Eating & Drinking,Restaurant,المطعم المفضل,FAVOURITE RESTAURANT,54.36811447,24.47716427,أبوظبي,Abu Dhabi,جزيرة أبوظبى,Abu Dhabi Island,شرق 18_1,E18_01,6329300,group@fameco-uae.com,6329440,5869,Eating and Drinking,30,Restaurant,32,54.36811447000002,24.477164270000003
164,40561,DED-4201,"Accommodation, Eating & Drinking",Eating & Drinking,Restaurant,مطعم سرحد,SARHAD RESTAURANT,54.36972427,24.47832775,أبوظبي,Abu Dhabi,جزيرة أبوظبى,Abu Dhabi Island,شرق 18_1,E18_01,6418316,,,35287,Eating and Drinking,30,Restaurant,32,54.369724270000006,24.478327750000005
165,40562,DED-4202,"Accommodation, Eating & Drinking",Eating & Drinking,Restaurant,مطعم العائلة السعيدة,HAPPY FAMILY RESTAURANT,54.36885262,24.47761726,أبوظبي,Abu Dhabi,جزيرة أبوظبى,Abu Dhabi Island,شرق 18_1,E18_01,6422866,happyf@abudhabi.net.ae,,31684,Eating and Drinking,30,Restaurant,32,54.368852619999984,24.477617259999988
166,40570,DED-4634,"Accommodation, Eating & Drinking",Eating & Drinking,Restaurant,مطعم العين الخضراء,AL AIN AL KHADRA RESTAURANT,55.7766037,24.21750546,العين,Al Ain,وسط المدينة,CENTRAL DISTRICT,الكويتات,Al Kuwaitat,7512693,khadra@abudhabi.net.ae,,81394,Eating and Drinking,30,Restaurant,32,55.77660370000001,24.217505459999984
167,40571,DED-4635,"Accommodation, Eating & Drinking",Eating & Drinking,Restaurant,مطعم الراية,AL RAYA RESTAURANT,55.7766037,24.21750546,العين,Al Ain,وسط المدينة,CENTRAL DISTRICT,الكويتات,Al Kuwaitat,7517843,,,24531,Eating and Drinking,30,Restaurant,32,55.77660370000001,24.217505459999984
168,40572,DED-4636,"Accommodation, Eating & Drinking",Eating & Drinking,Restaurant,مطعم علاء الدين - ذ م م,ALEDDIN RESTAURANT - L L C,55.77669144,24.21959496,العين,Al Ain,وسط المدينة,CENTRAL DISTRICT,الكويتات,Al Kuwaitat,7667060,,7663647,84745,Eating and Drinking,30,Restaurant,32,55.77669143999998,24.219594959999995
169,40573,DED-4637,"Accommodation, Eating & Drinking",Eating & Drinking,Restaurant,فيش ورلد,FISH WORLD,55.7821331,24.22244453,العين,Al Ain,وسط المدينة,CENTRAL DISTRICT,الكويتات,Al Kuwaitat,7518663,fishworld1@hotmail.com,758664,23560,Eating and Drinking,30,Restaurant,32,55.78213310000001,24.22244453000002
170,40574,DED-4894,"Accommodation, Eating & Drinking",Eating & Drinking,Restaurant,مطعم بغداد,BAGHDAD RESTAURANT,55.92421722,24.09167099,العين,Al Ain,أم غافة,UM GHAFFA,المريخات,Al Muraikhat,7833160,,,84075,Eating and Drinking,30,Restaurant,32,55.92421722,24.09167099000001
171,40578,DED-4900,"Accommodation, Eating & Drinking",Eating & Drinking,Restaurant,مطعم وكافتيريا قمة جبل حفيت,QEMAT JABAL HAFEET RESTAURANT & CAFTERIA,55.77872467,24.05852509,العين,Al Ain,جبل حفيت,JEBEL HAFEET,المبزرة الخضراء,Green Mubazzarah,7666627,,7644699,80054,Eating and Drinking,30,Restaurant,32,55.778724669999974,24.05852508999999
172,40583,DED-4905,"Accommodation, Eating & Drinking",Eating & Drinking,Restaurant,مرجان الريف للدجاج المقلي,MARJAN REEF FRIED CHICKEN,55.67437363,24.16488075,العين,Al Ain,العقابية,AL AGABIYAA,الخالدية,Al Khalidiyya,7813146,nammaas@am.ae,,18632,Eating and Drinking,30,Restaurant,32,55.67437362999999,24.16488075000001
173,40594,DED-3430,"Accommodation, Eating & Drinking",Eating & Drinking,Restaurant,مطعم موتيماهل ديلوكس,MOTIMAHAL DELUXE RESTAURANT,54.37512589,24.49116993,أبوظبي,Abu Dhabi,جزيرة أبوظبى,Abu Dhabi Island,شرق 11,E11,4434434,,4432266,43776,Eating and Drinking,30,Restaurant,32,54.37512588999999,24.491169930000012
174,40595,DED-3431,"Accommodation, Eating & Drinking",Eating & Drinking,Restaurant,مطعم شابان بوغ,CHHAPPAN BOG RESTAURANT,54.37479019,24.49156761,أبوظبي,Abu Dhabi,جزيرة أبوظبى,Abu Dhabi Island,شرق 11,E11,6778864,bhog_56@emirates.net.ae,6777675,7789,Eating and Drinking,30,Restaurant,32,54.37479019,24.491567610000004
175,40596,DED-3432,"Accommodation, Eating & Drinking",Eating & Drinking,Restaurant,الصاج كافية,AL SAJ CAFE,54.3707962,24.48990536,أبوظبي,Abu Dhabi,جزيرة أبوظبى,Abu Dhabi Island,شرق 11,E11,6766568,,6768232,34598,Eating and Drinking,30,Restaurant,32,54.37079619999997,24.489905360000023
176,40597,DED-4203,"Accommodation, Eating & Drinking",Eating & Drinking,Restaurant,مطعم زهرة العرب,ZAHRAT AL ARAB RESTAURANT,54.36940448,24.47220786,أبوظبي,Abu Dhabi,جزيرة أبوظبى,Abu Dhabi Island,شرق 18_1,E18_01,,,,,Eating and Drinking,30,Restaurant,32,54.369404480000014,24.472207860000026
177,40598,DED-4204,"Accommodation, Eating & Drinking",Eating & Drinking,Restaurant,مطعم الفوار,AL FAWWAR RESTAURANT,54.36755558,24.47426615,أبوظبي,Abu Dhabi,جزيرة أبوظبى,Abu Dhabi Island,شرق 18_1,E18_01,,,,,Eating and Drinking,30,Restaurant,32,54.36755557999999,24.474266150000005
178,40599,DED-4205,"Accommodation, Eating & Drinking",Eating & Drinking,Restaurant,مطعم العين,ALAIN RESTAURANT,54.36850548,24.47314835,أبوظبي,Abu Dhabi,جزيرة أبوظبى,Abu Dhabi Island,شرق 18_1,E18_01,6422507,,,25361,Eating and Drinking,30,Restaurant,32,54.36850548000001,24.473148349999974
179,40600,DED-4206,"Accommodation, Eating & Drinking",Eating & Drinking,Restaurant,مطعم ابوالنواس,ABUL NAWAS RESTAURANT,54.37253952,24.472209929999998,أبوظبي,Abu Dhabi,جزيرة أبوظبى,Abu Dhabi Island,شرق 18_1,E18_01,6422322,,,27941,Eating and Drinking,30,Restaurant,32,54.372539519999975,24.47220993000002
180,40601,DED-4207,"Accommodation, Eating & Drinking",Eating & Drinking,Restaurant,مطعم الشاطر حسن,ALSHATIR HASSAN RESTAURANT,54.36972427,24.47832775,أبوظبي,Abu Dhabi,جزيرة أبوظبى,Abu Dhabi Island,شرق 18_1,E18_01,6416616,,6712278,46539,Eating and Drinking,30,Restaurant,32,54.369724270000006,24.478327750000005
181,40602,DED-4208,"Accommodation, Eating & Drinking",Eating & Drinking,Restaurant,مطعم ضياء,ZIYA RESTAURANT,54.37305069,24.4724741,أبوظبي,Abu Dhabi,جزيرة أبوظبى,Abu Dhabi Island,شرق 18_1,E18_01,6412750,,,43958,Eating and Drinking,30,Restaurant,32,54.373050690000014,24.4724741
182,40603,DED-4209,"Accommodation, Eating & Drinking",Eating & Drinking,Restaurant,مطعم العرب,AL ARAB RESTAURANT,54.37144089,24.47132969,أبوظبي,Abu Dhabi,جزيرة أبوظبى,Abu Dhabi Island,شرق 18_1,E18_01,6417210,,6417209,8221,Eating and Drinking,30,Restaurant,32,54.371440889999974,24.471329690000005
183,40604,DED-4210,"Accommodation, Eating & Drinking",Eating & Drinking,Restaurant,مطعم الصدف للمأكولات الايرانية ـ ذ م م,AL SADAF IRIANINA FOOD RESTAURANT LLC,54.37063026,24.47767067,أبوظبي,Abu Dhabi,جزيرة أبوظبى,Abu Dhabi Island,شرق 18_1,E18_01,,,,27667,Eating and Drinking,30,Restaurant,32,54.370630259999984,24.47767067000001
184,40605,DED-4277,"Accommodation, Eating & Drinking",Eating & Drinking,Restaurant,مطعم شمع مهران,SHMA MEHRAN RESTAURANT,54.48907471,24.37068176,أبوظبي,Abu Dhabi,مصفح,Musaffah,مصفح  16,M16,5541970,,,36815,Eating and Drinking,30,Restaurant,32,54.48907471000001,24.370681760000025
185,40606,DED-4278,"Accommodation, Eating & Drinking",Eating & Drinking,Restaurant,مطعم ريانه,RAYYANA RESTAURANT,54.48907471,24.37068176,أبوظبي,Abu Dhabi,مصفح,Musaffah,مصفح  16,M16,5541557,,,54181,Eating and Drinking,30,Restaurant,32,54.48907471000001,24.370681760000025
186,40608,DED-4280,"Accommodation, Eating & Drinking",Eating & Drinking,Restaurant,مطعم ابراج الامارات ذ م م,TOWER OF EMIRATES  RESTAURANT L L C,54.61051369,24.3178463,أبوظبي,Abu Dhabi,بنى ياس,Baniyas,بني ياس شرق 2_1,EB2_01,5825255,am83030@hotmail.com,5826565,27399,Eating and Drinking,30,Restaurant,32,54.610513690000005,24.317846299999985
187,40609,DED-4281,"Accommodation, Eating & Drinking",Eating & Drinking,Restaurant,مطعم فرج المنصورى,FARAJ AL MANSOURY RESTAURANT,54.61441994,24.32698631,أبوظبي,Abu Dhabi,مدينة خليفة ب,Khalifa City B,المفرق,Mafraq,5827422,,,70284,Eating and Drinking,30,Restaurant,32,54.614419940000005,24.326986309999995
188,40610,DED-4638,"Accommodation, Eating & Drinking",Eating & Drinking,Restaurant,مطعم نبراس الدار.,NABRAS AL DAR RESTAURANT,55.77759933,24.22052383,العين,Al Ain,وسط المدينة,CENTRAL DISTRICT,الكويتات,Al Kuwaitat,7668200,,,89373,Eating and Drinking,30,Restaurant,32,55.77759932999999,24.22052382999999
189,40611,DED-4639,"Accommodation, Eating & Drinking",Eating & Drinking,Restaurant,مطعم سور الصين,CHINA WALL RESTAURANT,55.7821331,24.22244453,العين,Al Ain,وسط المدينة,CENTRAL DISTRICT,الكويتات,Al Kuwaitat,,,,,Eating and Drinking,30,Restaurant,32,55.78213310000001,24.22244453000002
190,40612,DED-4640,"Accommodation, Eating & Drinking",Eating & Drinking,Restaurant,مطعم عبدالعزيز الجديد,NEW ABDULAZIZ RESTAURANT,55.77618027,24.21815395,العين,Al Ain,وسط المدينة,CENTRAL DISTRICT,الكويتات,Al Kuwaitat,7645252,,,16935,Eating and Drinking,30,Restaurant,32,55.77618027,24.218153949999987
191,40613,DED-4641,"Accommodation, Eating & Drinking",Eating & Drinking,Restaurant,مطعم غاردن العين,AL AIN GARDEN RESTAURANT,55.77732849,24.22037506,العين,Al Ain,وسط المدينة,CENTRAL DISTRICT,الكويتات,Al Kuwaitat,,,,18177,Eating and Drinking,30,Restaurant,32,55.77732849,24.22037505999998
192,40614,DED-4642,"Accommodation, Eating & Drinking",Eating & Drinking,Restaurant,مطعم موغل الملكي ذ.م.م,ROYAL MUGHAL RESTAURANT  L.L.C.,55.7821331,24.22244453,العين,Al Ain,وسط المدينة,CENTRAL DISTRICT,الكويتات,Al Kuwaitat,7510506,,7510306,59101,Eating and Drinking,30,Restaurant,32,55.78213310000001,24.22244453000002
193,40615,DED-4643,"Accommodation, Eating & Drinking",Eating & Drinking,Restaurant,مطعم شهريار,SHAHRYAR RESTAURANT,55.7821331,24.22244453,العين,Al Ain,وسط المدينة,CENTRAL DISTRICT,الكويتات,Al Kuwaitat,7663353,,,68475,Eating and Drinking,30,Restaurant,32,55.78213310000001,24.22244453000002
194,40617,DED-4664,"Accommodation, Eating & Drinking",Eating & Drinking,Restaurant,مطعم المربع ذ م م,AL MURABA RESTAURANT L LC,55.81693649,24.16195583,العين,Al Ain,الخرير,AL KHRAIR,وادي العين 1,Wadi Al Ain 1,7657046,,,65235,Eating and Drinking,30,Restaurant,32,55.81693648999999,24.16195583000001
195,40618,DED-4665,"Accommodation, Eating & Drinking",Eating & Drinking,Restaurant,مطعم علي الشكيلي,ALI AL SHEKAILI RESTAURANT,55.8121624,24.15356636,العين,Al Ain,الخرير,AL KHRAIR,وادي العين 1,Wadi Al Ain 1,7824423,_,,19297,Eating and Drinking,30,Restaurant,32,55.81216239999998,24.153566360000013
196,40619,DED-4666,"Accommodation, Eating & Drinking",Eating & Drinking,Restaurant,مطعم روي,ROWI RESTAURANT,55.81531715,24.1489296,العين,Al Ain,الخرير,AL KHRAIR,وادي العين 1,Wadi Al Ain 1,7823011,,,19103,Eating and Drinking,30,Restaurant,32,55.81531715,24.148929599999974
197,40627,DED-4912,"Accommodation, Eating & Drinking",Eating & Drinking,Restaurant,مطعم نور سويحان,NOOR SWAIHAN RESTAURANT,55.71344376,24.12674713,العين,Al Ain,نعمة,NEIMA,نعمة1,Neima 1,7838151,,,16247,Eating and Drinking,30,Restaurant,32,55.71344376000002,24.126747130000012
198,40629,DED-4914,"Accommodation, Eating & Drinking",Eating & Drinking,Restaurant,مطعم الشويب,AL SHOWAIB RESTAURANT,55.67857361,24.66801071,العين,Al Ain,الفقع,AL FAQA'A,شيباك 2,Shibak 2,7321071,,,17819,Eating and Drinking,30,Restaurant,32,55.67857361,24.668010709999976
199,40635,DED-4945,"Accommodation, Eating & Drinking",Eating & Drinking,Restaurant,مطعم البرجر الذهبي  - ذ.م.م.,GOLDEN BURGER RESTURANT - L.L.C,55.80761337,24.33915997,العين,Al Ain,الفوعة,AL FOAH,الليم,Al Laim,7832188,,,86159,Eating and Drinking,30,Restaurant,32,55.80761337000001,24.339159970000026
200,40636,DED-3433,"Accommodation, Eating & Drinking",Eating & Drinking,Restaurant,مطعم جهينة الفلبيني,JUHAINA PHILIPPINE RESTAURANT,54.37311401,24.49247932,أبوظبي,Abu Dhabi,جزيرة أبوظبى,Abu Dhabi Island,شرق 11,E11,,,,,Eating and Drinking,30,Restaurant,32,54.373114009999995,24.492479319999973
201,40637,DED-3434,"Accommodation, Eating & Drinking",Eating & Drinking,Restaurant,مطعم شيكن اكسبريس ذ.م.م,CHICKEN EXPRESS RESTAURANT L.L.C.,54.37283516,24.48907471,أبوظبي,Abu Dhabi,جزيرة أبوظبى,Abu Dhabi Island,شرق 11,E11,6777666,,6780565,36460,Eating and Drinking,30,Restaurant,32,54.37283516000002,24.48907471000001
202,40638,DED-3435,"Accommodation, Eating & Drinking",Eating & Drinking,Restaurant,مطعم المحظوظ,AL MAHDHOUDH RESTAURANT,54.37429047,24.4912138,أبوظبي,Abu Dhabi,جزيرة أبوظبى,Abu Dhabi Island,شرق 11,E11,6747220,,,46917,Eating and Drinking,30,Restaurant,32,54.374290470000005,24.491213800000025
203,40639,DED-3436,"Accommodation, Eating & Drinking",Eating & Drinking,Restaurant,مطعم وكافتيريا الطاحونة اللبنانية,LEBANON MILL CAFETERIA & RESTAURANT,54.37283516,24.48907471,أبوظبي,Abu Dhabi,جزيرة أبوظبى,Abu Dhabi Island,شرق 11,E11,6712277,,6712278,30512,Eating and Drinking,30,Restaurant,32,54.37283516000002,24.48907471000001
204,40640,DED-3437,"Accommodation, Eating & Drinking",Eating & Drinking,Restaurant,مطعم انجبار شيتيناد الاصيل - ذ م م,ANJAPPAR AUTHENTIC CHETTINAAD RESTAURANT- L LC,54.37512547,24.49116968,أبوظبي,Abu Dhabi,جزيرة أبوظبى,Abu Dhabi Island,شرق 11,E11,6721500,,,54790,Eating and Drinking,30,Restaurant,32,54.37512547,24.491169679999985
205,40641,DED-3438,"Accommodation, Eating & Drinking",Eating & Drinking,Restaurant,مطعم رويال اورشيد,ROYAL ORCHID RESTAURANT,54.37529755,24.4916153,أبوظبي,Abu Dhabi,جزيرة أبوظبى,Abu Dhabi Island,شرق 11,E11,6777001,orchid98@emirates.net.ae,6780789,7789,Eating and Drinking,30,Restaurant,32,54.37529755000003,24.491615299999978
206,40645,DED-3636,"Accommodation, Eating & Drinking",Eating & Drinking,Restaurant,مطعم فود تايم,FOOD TIME RESTAURANT,54.50165558,24.37812901,أبوظبي,Abu Dhabi,مصفح,Musaffah,مصفح  9,M9,,,,30675,Eating and Drinking,30,Restaurant,32,54.50165557999998,24.37812901000001
207,40647,DED-3638,"Accommodation, Eating & Drinking",Eating & Drinking,Restaurant,مطعم باك بنجاب - فرع,PAK PUNJAB RESTAURANT - BRANCH,54.50358724,24.37506934,أبوظبي,Abu Dhabi,مصفح,Musaffah,مصفح  9,M9,,,,,Eating and Drinking,30,Restaurant,32,54.50358724,24.375069339999982
208,40648,DED-3639,"Accommodation, Eating & Drinking",Eating & Drinking,Restaurant,مطعم صوان,SAWAN RESTAURANT,54.50336938,24.37851806,أبوظبي,Abu Dhabi,مصفح,Musaffah,مصفح  9,M9,,,,,Eating and Drinking,30,Restaurant,32,54.50336937999998,24.378518059999976
209,40649,DED-4282,"Accommodation, Eating & Drinking",Eating & Drinking,Restaurant,مطعم ومطبخ السفرة,AL SUFRA RESTAURANT & CUISINE,54.64109802,24.55625629,أبوظبي,Abu Dhabi,الباهية,Al Bahya,الباهية الجديدة,Al Bahya New,5630863,,,29186,Eating and Drinking,30,Restaurant,32,54.641098020000015,24.55625629000002
210,40650,DED-4283,"Accommodation, Eating & Drinking",Eating & Drinking,Restaurant,مطعم الجودة العالية,HIGH QUALITY RESTURANT,54.56386185,24.36578369,أبوظبي,Abu Dhabi,حى العاصمة,Capital District,حي العاصمة 39,CD39,5866620,al_atufa@hotmail.com,,127395,Eating and Drinking,30,Restaurant,32,54.56386185000002,24.36578369
211,40651,DED-4284,"Accommodation, Eating & Drinking",Eating & Drinking,Restaurant,مطعم الشيزان - فرع,AL SHIZAN RESTAURANT - BRANCH,54.64461708,24.35516548,أبوظبي,Abu Dhabi,مدينة خليفة ب,Khalifa City B,المفرق غرب 38,MFW38,5846212,,5254580,72289,Eating and Drinking,30,Restaurant,32,54.64461707999999,24.355165479999982
212,40652,DED-4285,"Accommodation, Eating & Drinking",Eating & Drinking,Restaurant,مطعم قصر الجبل,HILL PALACE RESTAURANT,54.91514206,24.87149811,أبوظبي,Abu Dhabi,الجرف (حزام الغابات),Al Jarf (Hizam Al Ghabat),غنتوت,Ghantout,5629107,,5629396,135741,Eating and Drinking,30,Restaurant,32,54.915142059999994,24.871498110000005
213,40653,DED-4286,"Accommodation, Eating & Drinking",Eating & Drinking,Restaurant,مطعم واستراحة سيح شعيب,SEEH SHUAIB RESTAURANT & REST HOUSE,54.93601036,24.89240265,أبوظبي,Abu Dhabi,الجرف (حزام الغابات),Al Jarf (Hizam Al Ghabat),غنتوت,Ghantout,5629019,,,76512,Eating and Drinking,30,Restaurant,32,54.93601036000001,24.892402650000008
214,40654,DED-4287,"Accommodation, Eating & Drinking",Eating & Drinking,Restaurant,مطعم غنتوت الملكى,GHANTOOT ROYAL RESTAURANT,54.91097069,24.86778641,أبوظبي,Abu Dhabi,الجرف (حزام الغابات),Al Jarf (Hizam Al Ghabat),غنتوت,Ghantout,5503003,,6210787,27557,Eating and Drinking,30,Restaurant,32,54.91097069,24.867786410000008
215,40661,DED-4671,"Accommodation, Eating & Drinking",Eating & Drinking,Restaurant,مطعم الباشق,AL BSHEQ RESTAURANT,55.75924873,24.19846916,العين,Al Ain,المنطقة الصناعية,SANAIYA,شعبة السلم,Shiebat Al Salam,7219035,,,98041,Eating and Drinking,30,Restaurant,32,55.759248730000024,24.198469160000002
216,40662,DED-4672,"Accommodation, Eating & Drinking",Eating & Drinking,Restaurant,مطعم محمد حسين,MOHD HUSAIN RESTAURANT,55.75652504,24.19851112,العين,Al Ain,المنطقة الصناعية,SANAIYA,شعبة السلم,Shiebat Al Salam,7212745,,,80885,Eating and Drinking,30,Restaurant,32,55.756525039999985,24.198511119999978
217,40663,DED-4673,"Accommodation, Eating & Drinking",Eating & Drinking,Restaurant,مطعم بعلبك,BAALABAK RESTAURNAT,55.76085281,24.19737625,العين,Al Ain,المنطقة الصناعية,SANAIYA,شعبة السلم,Shiebat Al Salam,,,,,Eating and Drinking,30,Restaurant,32,55.76085281000002,24.19737624999999
218,40670,DED-4683,"Accommodation, Eating & Drinking",Eating & Drinking,Restaurant,مطعم الفتح,AL FATEH RESTAURANT,55.75515747,24.18470001,العين,Al Ain,المنطقة الصناعية,SANAIYA,العجيّيز,Al Ajayyiz,7211025,,,66548,Eating and Drinking,30,Restaurant,32,55.75515746999997,24.184700009999972
219,40671,DED-4684,"Accommodation, Eating & Drinking",Eating & Drinking,Restaurant,مطعم مكة,MECCA RESTAURANT,55.75515747,24.18470001,العين,Al Ain,المنطقة الصناعية,SANAIYA,العجيّيز,Al Ajayyiz,7211959,,,20596,Eating and Drinking,30,Restaurant,32,55.75515746999997,24.184700009999972
220,40672,DED-4685,"Accommodation, Eating & Drinking",Eating & Drinking,Restaurant,مطعم وادي الرمال,WADI ALRUMAL RESTAURANT,55.75463486,24.18579006,العين,Al Ain,المنطقة الصناعية,SANAIYA,العجيّيز,Al Ajayyiz,7211319,,,69815,Eating and Drinking,30,Restaurant,32,55.75463486000001,24.185790059999988
221,40679,DED-4951,"Accommodation, Eating & Drinking",Eating & Drinking,Restaurant,مطعم ومقهى ليالي البنفسج,LAYALI AL BANAFSAJ RESTAURANT & COFFEE SHOP,55.75357819,24.24779892,العين,Al Ain,الجيمي,AL JIMI,الخريس,Al Khrais,,,,16203,Eating and Drinking,30,Restaurant,32,55.753578189999985,24.24779891999998
222,40687,DED-3640,"Accommodation, Eating & Drinking",Eating & Drinking,Restaurant,مطعم وحلويات ياسمين - فرع  2,YASMIN SWEETS & RESTAURANT - BRANCH  2,54.51023827,24.37419321,أبوظبي,Abu Dhabi,مصفح,Musaffah,مصفح  9,M9,5555064,,,28815,Eating and Drinking,30,Restaurant,32,54.51023827,24.374193209999987
223,40688,DED-3641,"Accommodation, Eating & Drinking",Eating & Drinking,Restaurant,مطعم جراند دربار,GRAND DARBAR RESTAURANT,54.50665855,24.37378883,أبوظبي,Abu Dhabi,مصفح,Musaffah,مصفح  9,M9,5555641,,,8776,Eating and Drinking,30,Restaurant,32,54.50665855,24.373788830000024
224,40689,DED-3642,"Accommodation, Eating & Drinking",Eating & Drinking,Restaurant,مطعم صحراء المنيور,AL MANURE DESERT RESTAURANT,54.50784683,24.37404633,أبوظبي,Abu Dhabi,مصفح,Musaffah,مصفح  9,M9,,,,12895,Eating and Drinking,30,Restaurant,32,54.507846830000005,24.37404633
225,40690,DED-3643,"Accommodation, Eating & Drinking",Eating & Drinking,Restaurant,مطعم وحلويات ياسمين - فرع  2,YASMIN SWEETS & RESTAURANT - BRANCH  2,54.51023865,24.37419319,أبوظبي,Abu Dhabi,مصفح,Musaffah,مصفح  9,M9,5555064,,,28815,Eating and Drinking,30,Restaurant,32,54.51023865000002,24.374193190000028
226,40692,DED-3788,"Accommodation, Eating & Drinking",Eating & Drinking,Restaurant,مطعم قصر الوادي الاخضر,GREEN VALLEY PALACE RESTAURANT,54.63372421,24.29072189,أبوظبي,Abu Dhabi,بنى ياس,Baniyas,بني ياس غرب 3 _أ,WB3_A,5831677,,,11168,Eating and Drinking,30,Restaurant,32,54.633724210000025,24.290721889999986
227,40699,DED-3802,"Accommodation, Eating & Drinking",Eating & Drinking,Restaurant,مطعم ومشاوى الخيزران,AL KHAIZURAN RESTAURANT & GRILLS,54.40114021,24.44776726,أبوظبي,Abu Dhabi,جزيرة أبوظبى,Abu Dhabi Island,شرق 28,E28,4486008,,4486008,26556,Eating and Drinking,30,Restaurant,32,54.401140209999994,24.447767259999978
228,40704,DED-4302,"Accommodation, Eating & Drinking",Eating & Drinking,Restaurant,مطعم ومشاوي الصياد البحري,AL SAYYAD MARINE RESTAURANT & GRILLS,54.37271881,24.51166534,أبوظبي,Abu Dhabi,جزيرة أبوظبى,Abu Dhabi Island,الميناء,Harbour,,,6415534,42484,Eating and Drinking,30,Restaurant,32,54.37271880999998,24.51166533999998
229,40706,DED-4304,"Accommodation, Eating & Drinking",Eating & Drinking,Restaurant,مطعم باب المدينة,CITY GATE RESTAURANT,54.37918091,24.51860619,أبوظبي,Abu Dhabi,جزيرة أبوظبى,Abu Dhabi Island,الميناء,Harbour,6730755,,6731516,28358,Eating and Drinking,30,Restaurant,32,54.37918091,24.518606190000014
230,40707,DED-4305,"Accommodation, Eating & Drinking",Eating & Drinking,Restaurant,المطبخ السعودى للمأكولات السعودية,SAUDIAN KITCHEN FOR SAUDI FOOD,54.37391281,24.5129509,أبوظبي,Abu Dhabi,جزيرة أبوظبى,Abu Dhabi Island,الميناء,Harbour,6734141,,6418110,29075,Eating and Drinking,30,Restaurant,32,54.37391280999998,24.51295090000002
231,40708,DED-4306,"Accommodation, Eating & Drinking",Eating & Drinking,Restaurant,مطعم الظفرة - فرع,AL DHAFRA RESTAURANT - BRANCH,54.3726808,24.51206776,أبوظبي,Abu Dhabi,جزيرة أبوظبى,Abu Dhabi Island,الميناء,Harbour,,,,,Eating and Drinking,30,Restaurant,32,54.37268080000001,24.51206775999998
232,40709,DED-4307,"Accommodation, Eating & Drinking",Eating & Drinking,Restaurant,مطعم الشليلة,AL SHALILA  RESTAURANT,54.37330437,24.51229286,أبوظبي,Abu Dhabi,جزيرة أبوظبى,Abu Dhabi Island,الميناء,Harbour,6732585,,,53821,Eating and Drinking,30,Restaurant,32,54.37330437000003,24.512292860000002
233,40732,DED-4967,"Accommodation, Eating & Drinking",Eating & Drinking,Restaurant,مطعم افغان كباب,AFGHAN KABAB RESTAURANT,55.76911163,24.26658249,العين,Al Ain,هيلي,HILI,ندود جهام,Ndood Jham,,,,,Eating and Drinking,30,Restaurant,32,55.76911163,24.26658249000002
234,40733,DED-4968,"Accommodation, Eating & Drinking",Eating & Drinking,Restaurant,مطعم عاتي العين,ATI AL AIN  RESTAURANT,55.76827621,24.26362801,العين,Al Ain,هيلي,HILI,ندود جهام,Ndood Jham,7622706,AIN95575@abudhabi.net.ae,,20854,Eating and Drinking,30,Restaurant,32,55.76827621000001,24.26362800999999
235,40734,DED-4969,"Accommodation, Eating & Drinking",Eating & Drinking,Restaurant,مطعم جبل مره,JABAL MURRAH RESTAURANT,55.76737976,24.2673893,العين,Al Ain,هيلي,HILI,ندود جهام,Ndood Jham,7623884,,,81708,Eating and Drinking,30,Restaurant,32,55.76737975999998,24.26738929999999
236,40736,DED-4971,"Accommodation, Eating & Drinking",Eating & Drinking,Restaurant,مطعم ركن التواصل,RUKIN AL TAWASUL RESTAURANT,55.76751709,24.26494217,العين,Al Ain,هيلي,HILI,ندود جهام,Ndood Jham,7621272,,,69224,Eating and Drinking,30,Restaurant,32,55.76751709000001,24.264942169999983
237,40737,DED-4974,"Accommodation, Eating & Drinking",Eating & Drinking,Restaurant,مطعم كوخ القطارة,RASTURANT HUT QATARA,55.75550079,24.26045704,العين,Al Ain,القطارة,AL QATTARA,حي الند,Hai Al Nad,,,,88064,Eating and Drinking,30,Restaurant,32,55.755500789999985,24.260457040000006
238,40738,DED-3803,"Accommodation, Eating & Drinking",Eating & Drinking,Restaurant,مطعم عصفور الحديقة,GARDEN SPARROWS RESTAURANT,54.40040779,24.44884682,أبوظبي,Abu Dhabi,جزيرة أبوظبى,Abu Dhabi Island,شرق 28,E28,4480115,,,96261,Eating and Drinking,30,Restaurant,32,54.400407789999974,24.44884682000003
239,40739,DED-3804,"Accommodation, Eating & Drinking",Eating & Drinking,Restaurant,مطعم و مشاوي شاورمينو,SHAWARMINO RESTAURANT & GRILLS,54.40220833,24.44665337,أبوظبي,Abu Dhabi,جزيرة أبوظبى,Abu Dhabi Island,شرق 28,E28,4486867,,4483002,46363,Eating and Drinking,30,Restaurant,32,54.40220833000001,24.44665336999998
240,40740,DED-3805,"Accommodation, Eating & Drinking",Eating & Drinking,Restaurant,مطعم كوخ البرجر,BURGER HUT RESTAURANT,54.40240479,24.44712257,أبوظبي,Abu Dhabi,جزيرة أبوظبى,Abu Dhabi Island,شرق 28,E28,,,,,Eating and Drinking,30,Restaurant,32,54.40240478999999,24.447122569999976
241,40752,DED-4319,"Accommodation, Eating & Drinking",Eating & Drinking,Restaurant,مطعم ومقهى تشى تشى بولفار - ذ م م,BOULEVARD TCHE TCHE RESTAURANT & CAFE - L L C,54.57416153,24.43893814,أبوظبي,Abu Dhabi,شاطئ الراحة,Shatie Al Raha,شاطئ الراحة غرب 13,RBW13,5566411,,5566408,26544,Eating and Drinking,30,Restaurant,32,54.574161530000026,24.438938140000005
242,40753,DED-4320,"Accommodation, Eating & Drinking",Eating & Drinking,Restaurant,مطعم زاري  ذ م م,ZARI RESTAURANT  LLC,54.57416153,24.43893814,أبوظبي,Abu Dhabi,شاطئ الراحة,Shatie Al Raha,شاطئ الراحة غرب 13,RBW13,6742266,,6411788,37005,Eating and Drinking,30,Restaurant,32,54.574161530000026,24.438938140000005
243,40754,DED-4321,"Accommodation, Eating & Drinking",Eating & Drinking,Restaurant,مطعم دبل هابينيس,DOUBLE HAPPINESS RESTAURANT,54.57418244,24.43894075,أبوظبي,Abu Dhabi,شاطئ الراحة,Shatie Al Raha,شاطئ الراحة غرب 13,RBW13,,,4452075,46376,Eating and Drinking,30,Restaurant,32,54.574182440000016,24.438940749999972
244,40755,DED-4322,"Accommodation, Eating & Drinking",Eating & Drinking,Restaurant,بيتزا امورى - فرع,PIZZA AMORE - BRANCH,54.57418244,24.43894075,أبوظبي,Abu Dhabi,شاطئ الراحة,Shatie Al Raha,شاطئ الراحة غرب 13,RBW13,5565290,,6450900,33330,Eating and Drinking,30,Restaurant,32,54.574182440000016,24.438940749999972
245,40756,DED-4323,"Accommodation, Eating & Drinking",Eating & Drinking,Restaurant,مطعم حديقة اسيا - فرع,ASIAN GARDEN RESTAURANT - BRANCH,54.57418244,24.43894075,أبوظبي,Abu Dhabi,شاطئ الراحة,Shatie Al Raha,شاطئ الراحة غرب 13,RBW13,,,,,Eating and Drinking,30,Restaurant,32,54.574182440000016,24.438940749999972
246,40758,DED-4336,"Accommodation, Eating & Drinking",Eating & Drinking,Restaurant,مطعم المسلخ,AL MASLEKH RESTAURANT,54.37931442,24.51179314,أبوظبي,Abu Dhabi,جزيرة أبوظبى,Abu Dhabi Island,شرق 14_1,E14_01,,,,44136,Eating and Drinking,30,Restaurant,32,54.379314420000014,24.51179314000001
247,40759,DED-4337,"Accommodation, Eating & Drinking",Eating & Drinking,Restaurant,مطعم المنى,AL MUNA RESTAURANT,54.38075829,24.51206589,أبوظبي,Abu Dhabi,جزيرة أبوظبى,Abu Dhabi Island,شرق 14_1,E14_01,,,,,Eating and Drinking,30,Restaurant,32,54.38075829000002,24.512065889999974
248,40760,DED-4338,"Accommodation, Eating & Drinking",Eating & Drinking,Restaurant,مطعم المقاطرة,AL MUQATIRA RESTAURANT,54.37906647,24.51141548,أبوظبي,Abu Dhabi,جزيرة أبوظبى,Abu Dhabi Island,شرق 14_1,E14_01,6731510,,,40108,Eating and Drinking,30,Restaurant,32,54.37906647,24.511415479999982
249,40766,DED-4703,"Accommodation, Eating & Drinking",Eating & Drinking,Restaurant,مطعم الاخوة,AL EKHWA RESTAURANT,55.75752258,24.19088554,العين,Al Ain,المنطقة الصناعية,SANAIYA,بطحاء الحائر,Batha Al Hayer,,,,84751,Eating and Drinking,30,Restaurant,32,55.75752258,24.19088554000001
250,40767,DED-4704,"Accommodation, Eating & Drinking",Eating & Drinking,Restaurant,مطعم الضمير ذ.م.م,AL DAHAMEER RESTAURANT L.L.C,55.76127434,24.1950779,العين,Al Ain,المنطقة الصناعية,SANAIYA,بطحاء الحائر,Batha Al Hayer,7220013,,,16389,Eating and Drinking,30,Restaurant,32,55.76127434,24.1950779
251,40768,DED-4705,"Accommodation, Eating & Drinking",Eating & Drinking,Restaurant,مطعم الفجر,AL FAJR RESTAURANT,55.75736618,24.19025803,العين,Al Ain,المنطقة الصناعية,SANAIYA,بطحاء الحائر,Batha Al Hayer,7212382,,,64159,Eating and Drinking,30,Restaurant,32,55.75736618000002,24.190258029999995
252,40769,DED-4706,"Accommodation, Eating & Drinking",Eating & Drinking,Restaurant,مطعم عود ميثة,OUD MAITHA RESTURANT,55.7575779,24.19421196,العين,Al Ain,المنطقة الصناعية,SANAIYA,بطحاء الحائر,Batha Al Hayer,7211694,,7219944,15503,Eating and Drinking,30,Restaurant,32,55.7575779,24.19421196000002
253,40770,DED-4707,"Accommodation, Eating & Drinking",Eating & Drinking,Restaurant,مطعم محمد سوكور,MOHAMMED SOKWAR RESTAURANT,55.75842285,24.19474888,العين,Al Ain,المنطقة الصناعية,SANAIYA,بطحاء الحائر,Batha Al Hayer,7211412,,,24150,Eating and Drinking,30,Restaurant,32,55.75842284999999,24.19474888000002
254,40771,DED-4708,"Accommodation, Eating & Drinking",Eating & Drinking,Restaurant,مطعم الاعجاب - فرع,AL EJAB RESTAURANT - BRANCH,55.7551384,24.19553471,العين,Al Ain,المنطقة الصناعية,SANAIYA,بطحاء الحائر,Batha Al Hayer,7218944,,,20064,Eating and Drinking,30,Restaurant,32,55.75513840000002,24.195534710000004
255,40772,DED-4709,"Accommodation, Eating & Drinking",Eating & Drinking,Restaurant,مطعم ابواحمد,ABU AHMAD RESTAURANT,55.76115608,24.19463158,العين,Al Ain,المنطقة الصناعية,SANAIYA,بطحاء الحائر,Batha Al Hayer,7211126,,,68698,Eating and Drinking,30,Restaurant,32,55.76115607999998,24.19463158000002
256,40773,DED-4710,"Accommodation, Eating & Drinking",Eating & Drinking,Restaurant,مطعم فخر بنجاب,FAKHR PANJAB RESTAURANT,55.75882912,24.19305801,العين,Al Ain,المنطقة الصناعية,SANAIYA,بطحاء الحائر,Batha Al Hayer,7223907,,7211982,96650,Eating and Drinking,30,Restaurant,32,55.75882911999997,24.193058010000016
257,40774,DED-4711,"Accommodation, Eating & Drinking",Eating & Drinking,Restaurant,مطعم مدينة البركة,MADINAT ALBARAKA RESTAURANT,55.7551384,24.19553471,العين,Al Ain,المنطقة الصناعية,SANAIYA,بطحاء الحائر,Batha Al Hayer,37212776,,,83194,Eating and Drinking,30,Restaurant,32,55.75513840000002,24.195534710000004
258,40775,DED-4975,"Accommodation, Eating & Drinking",Eating & Drinking,Restaurant,مطعم ومشاوي النور,AL NOOR RESTAURANT & GRILLS,55.75325012,24.24497032,العين,Al Ain,الجيمي,AL JIMI,سليمي,Slemi,7630690,,7629282,18381,Eating and Drinking,30,Restaurant,32,55.75325012000002,24.244970319999993
259,40776,DED-4976,"Accommodation, Eating & Drinking",Eating & Drinking,Restaurant,مطعم الناعوره,AL NAOORA RESTAURANT,55.75325012,24.24497032,العين,Al Ain,الجيمي,AL JIMI,سليمي,Slemi,,,,66892,Eating and Drinking,30,Restaurant,32,55.75325012000002,24.244970319999993
260,40777,DED-4977,"Accommodation, Eating & Drinking",Eating & Drinking,Restaurant,مطعم ابراهيم,IBRAHIM RESTAURANT,55.74581528,24.24595642,العين,Al Ain,الجيمي,AL JIMI,سليمي,Slemi,7632621,,,14248,Eating and Drinking,30,Restaurant,32,55.74581527999999,24.245956420000027
261,40778,DED-4978,"Accommodation, Eating & Drinking",Eating & Drinking,Restaurant,مطعم جبل القدس - ذ م م,JABAL AL QUDUS RESTAURANT -  L L C,55.74570465,24.24202728,العين,Al Ain,الجيمي,AL JIMI,سليمي,Slemi,7633326,,,16229,Eating and Drinking,30,Restaurant,32,55.74570464999999,24.242027280000002
262,40779,DED-4979,"Accommodation, Eating & Drinking",Eating & Drinking,Restaurant,مطعم وكافتيريا ملابار,MALABAR RESTAURANT & CAFETERIA,55.74570465,24.24202728,العين,Al Ain,الجيمي,AL JIMI,سليمي,Slemi,,,,14800,Eating and Drinking,30,Restaurant,32,55.74570464999999,24.242027280000002
263,40783,DED-4984,"Accommodation, Eating & Drinking",Eating & Drinking,Restaurant,مطعم القوع الشعبي,AL QOUA TRADETIONAL RESTAURANT,55.4246521,23.39872742,العين,Al Ain,القوع,AL QUA'A,محاوي,Mahawi,7356890,,,69333,Eating and Drinking,30,Restaurant,32,55.4246521,23.39872742
264,40784,DED-4985,"Accommodation, Eating & Drinking",Eating & Drinking,Restaurant,مطعم الدرعي,AL DAREI RESTAURANT,55.42094231,23.39418793,العين,Al Ain,القوع,AL QUA'A,محاوي,Mahawi,7356179,,,88485,Eating and Drinking,30,Restaurant,32,55.42094230999999,23.394187929999987
265,40785,DED-4986,"Accommodation, Eating & Drinking",Eating & Drinking,Restaurant,مطعم محمد سالم الدرعي,MOHD SALEM AL DEREI RESTAURANT,55.42026711,23.39339447,العين,Al Ain,القوع,AL QUA'A,محاوي,Mahawi,7357286,,,21862,Eating and Drinking,30,Restaurant,32,55.42026711,23.393394469999976
266,40787,DED-4989,"Accommodation, Eating & Drinking",Eating & Drinking,Restaurant,مطعم رحال,RAHAL RESTAURANT,55.41953278,23.39414215,العين,Al Ain,القوع,AL QUA'A,القوع 1,Al Quaa 1,7356379,,,15708,Eating and Drinking,30,Restaurant,32,55.41953278,23.394142149999993
267,40792,DED-3847,"Accommodation, Eating & Drinking",Eating & Drinking,Restaurant,مطعم الشاطئ الملكى,ROYAL  BEACH REFRESHMENTS,54.36115481,24.49009743,أبوظبي,Abu Dhabi,جزيرة أبوظبى,Abu Dhabi Island,شرق 6,E6,6264656,beach@abudhabi.net.ae,,30080,Eating and Drinking,30,Restaurant,32,54.361154810000016,24.49009742999999
268,40793,DED-3848,"Accommodation, Eating & Drinking",Eating & Drinking,Restaurant,مطعم وكافتيريا الروشة,ALRAOUSHA RESTAURANT & CAFETERIA,54.36122513,24.49086952,أبوظبي,Abu Dhabi,جزيرة أبوظبى,Abu Dhabi Island,شرق 6,E6,6270808,,,46648,Eating and Drinking,30,Restaurant,32,54.36122512999998,24.49086951999999
269,40794,DED-3849,"Accommodation, Eating & Drinking",Eating & Drinking,Restaurant,الشركة الاهلية للاغذية ذ م م,AL AHLIA FOOD COMPANY W L L,54.36013603,24.48801613,أبوظبي,Abu Dhabi,جزيرة أبوظبى,Abu Dhabi Island,شرق 6,E6,6261177,ahliamed@emirates.net.ae,6267828,2419,Eating and Drinking,30,Restaurant,32,54.36013602999998,24.488016130000005
270,40795,DED-3850,"Accommodation, Eating & Drinking",Eating & Drinking,Restaurant,مطعم الخشب الجنوبى ذ.م.م,SOUTHERN  WOOD  RESTAURANT LLC,54.35990611,24.48948689,أبوظبي,Abu Dhabi,جزيرة أبوظبى,Abu Dhabi Island,شرق 6,E6,,,,,Eating and Drinking,30,Restaurant,32,54.35990611,24.489486890000023
271,40796,DED-3851,"Accommodation, Eating & Drinking",Eating & Drinking,Restaurant,مطعم طربوش,TARBOUCHE RESTAURANT,54.36099052,24.48861885,أبوظبي,Abu Dhabi,جزيرة أبوظبى,Abu Dhabi Island,شرق 6,E6,6260700,Tarbouche_awtar@yahoo.com,6743577,4832,Eating and Drinking,30,Restaurant,32,54.36099051999997,24.488618850000023
272,40797,DED-3853,"Accommodation, Eating & Drinking",Eating & Drinking,Restaurant,مطعم الخضراء شاردا - ذ م م,SHARADA VEGETARIAN RESTAURANT - LLC,54.3600776,24.48928868,أبوظبي,Abu Dhabi,جزيرة أبوظبى,Abu Dhabi Island,شرق 6,E6,6273825,jalvas@emirates.net.ae,6585834,46780,Eating and Drinking,30,Restaurant,32,54.36007760000001,24.489288680000016
273,40798,DED-3854,"Accommodation, Eating & Drinking",Eating & Drinking,Restaurant,مطعم الشراع الذهبى للمإكولات البحريه,GOLDEN SAIL SEA FOOD RESTAURANT,54.36041832,24.49084854,أبوظبي,Abu Dhabi,جزيرة أبوظبى,Abu Dhabi Island,شرق 6,E6,6277204,,,41230,Eating and Drinking,30,Restaurant,32,54.36041832000001,24.49084854
274,40808,DED-4351,"Accommodation, Eating & Drinking",Eating & Drinking,Restaurant,مطعم واحة الظاهر,WAHAT AL DHAHER RESTUARANT,55.83415985,24.07927322,العين,Al Ain,الظاهر,AL DHAHER,الظاهر 1,Dhaher 1,7821730,,,80288,Eating and Drinking,30,Restaurant,32,55.83415984999999,24.079273220000005
275,40810,DED-4354,"Accommodation, Eating & Drinking",Eating & Drinking,Restaurant,مطعم الرحال المحترف  ذ.م.م,AL RAHAL AL MUHTAREF RESTAURANT L.L.C.,55.82833099,24.110568999999998,العين,Al Ain,الظاهر,AL DHAHER,الظاهر 3,Dhaher 3,,,,89104,Eating and Drinking,30,Restaurant,32,55.828330989999984,24.110568999999998
276,40812,DED-4712,"Accommodation, Eating & Drinking",Eating & Drinking,Restaurant,مطعم ريم الخليج,REEM AL KHALEEJ RESTAURANT,55.7551384,24.19553471,العين,Al Ain,المنطقة الصناعية,SANAIYA,بطحاء الحائر,Batha Al Hayer,37219366,,,64743,Eating and Drinking,30,Restaurant,32,55.75513840000002,24.195534710000004
277,40813,DED-4713,"Accommodation, Eating & Drinking",Eating & Drinking,Restaurant,مطعم هلال احمد,HELAL AHMED RESTARANT,55.75774384,24.190485,العين,Al Ain,المنطقة الصناعية,SANAIYA,بطحاء الحائر,Batha Al Hayer,7216762,,,85297,Eating and Drinking,30,Restaurant,32,55.75774383999999,24.190485000000024
278,40814,DED-4714,"Accommodation, Eating & Drinking",Eating & Drinking,Restaurant,مطعم الصقر الابيض ذ.م.م,WHITE FALCON RESTAURANT L.L.C.,55.75586319,24.19441319,العين,Al Ain,المنطقة الصناعية,SANAIYA,بطحاء الحائر,Batha Al Hayer,,,,19322,Eating and Drinking,30,Restaurant,32,55.755863190000014,24.194413189999977
279,40815,DED-4715,"Accommodation, Eating & Drinking",Eating & Drinking,Restaurant,مطعم بوابة دمشق ذ م م,BAWABT DAMASCUS RESTAURANT L L C,55.75993347,24.19109154,العين,Al Ain,المنطقة الصناعية,SANAIYA,بطحاء الحائر,Batha Al Hayer,,,,68044,Eating and Drinking,30,Restaurant,32,55.75993347000002,24.191091540000002
280,40816,DED-4716,"Accommodation, Eating & Drinking",Eating & Drinking,Restaurant,مطعم وصايا,WASAYA RESTAURANT,55.75272751,24.19245434,العين,Al Ain,المنطقة الصناعية,SANAIYA,بطحاء الحائر,Batha Al Hayer,,,,,Eating and Drinking,30,Restaurant,32,55.75272751,24.192454339999983
281,40817,DED-4717,"Accommodation, Eating & Drinking",Eating & Drinking,Restaurant,مطبخ اليحر الحديث - فرع,AL YAHAR MODERN KITCHEN  - BRANCH,55.75272751,24.19245434,العين,Al Ain,المنطقة الصناعية,SANAIYA,بطحاء الحائر,Batha Al Hayer,,erfan_karamah@hotmail.com,,15912,Eating and Drinking,30,Restaurant,32,55.75272751,24.192454339999983
282,40818,DED-4718,"Accommodation, Eating & Drinking",Eating & Drinking,Restaurant,مطعم سيد محفوظ,SYED MAHFUZUL RESTAURANT,55.75833893,24.18965149,العين,Al Ain,المنطقة الصناعية,SANAIYA,بطحاء الحائر,Batha Al Hayer,,,,67039,Eating and Drinking,30,Restaurant,32,55.75833892999998,24.189651490000017
283,40823,DED-4723,"Accommodation, Eating & Drinking",Eating & Drinking,Restaurant,مطعم الجبل الاخضر,AL JEBEL AL AKHDHAR RESTAURANT,55.76509857,24.195466999999997,العين,Al Ain,المنطقة الصناعية,SANAIYA,الصفرة,Al Safrah,7219913,,,68794,Eating and Drinking,30,Restaurant,32,55.76509857000002,24.195467000000008
284,40824,DED-4724,"Accommodation, Eating & Drinking",Eating & Drinking,Restaurant,مطعم وحلويات ابوخالد,ABU KHALED RESTAURANT & CONFECTIONERIES,55.7648201,24.19243813,العين,Al Ain,المنطقة الصناعية,SANAIYA,الصفرة,Al Safrah,7644826,,,23013,Eating and Drinking,30,Restaurant,32,55.76482010000001,24.192438130000028
285,40825,DED-4990,"Accommodation, Eating & Drinking",Eating & Drinking,Restaurant,مطعم نعيم,NAEEM RESTAURANT,55.41993523,23.39463425,العين,Al Ain,القوع,AL QUA'A,القوع 1,Al Quaa 1,7356256,,,80121,Eating and Drinking,30,Restaurant,32,55.41993523000002,23.394634250000024
286,40829,DED-5388,"Accommodation, Eating & Drinking",Eating & Drinking,Restaurant,مطعم ياسين الحديث,YASIN MODERN RESTAURANT,54.40145874,24.43638992,أبوظبي,Abu Dhabi,جزيرة أبوظبى,Abu Dhabi Island,غرب 52,W52,4473577,,4473577,96117,Eating and Drinking,30,Restaurant,32,54.40145874000001,24.43638992000001
287,40831,DED-5404,"Accommodation, Eating & Drinking",Eating & Drinking,Restaurant,مطعم ام درمان,OMDURMAN RESTAURANT,54.42545509,24.42813492,أبوظبي,Abu Dhabi,جزيرة أبوظبى,Abu Dhabi Island,غرب 31,W31,4448020,,,129171,Eating and Drinking,30,Restaurant,32,54.425455090000014,24.42813491999999
288,40832,DED-5405,"Accommodation, Eating & Drinking",Eating & Drinking,Restaurant,مطعم الممتاز,AL MUMTAZ RESTAURANT,54.42545509,24.42813492,أبوظبي,Abu Dhabi,جزيرة أبوظبى,Abu Dhabi Island,غرب 31,W31,4447952,,,3998,Eating and Drinking,30,Restaurant,32,54.425455090000014,24.42813491999999
289,40837,DED-3855,"Accommodation, Eating & Drinking",Eating & Drinking,Restaurant,مطعم قصر الطعام,FOOD PALACE RESTAURANT,54.36006355,24.49000549,أبوظبي,Abu Dhabi,جزيرة أبوظبى,Abu Dhabi Island,شرق 6,E6,6270080,foodpalaceuae@yahoo.com,6269861,105912,Eating and Drinking,30,Restaurant,32,54.36006355000001,24.490005489999987
290,40838,DED-3856,"Accommodation, Eating & Drinking",Eating & Drinking,Restaurant,مطعم بافانا - فرع,BHAVANA RESTAURANT - BRANCH,54.36100578,24.48933601,أبوظبي,Abu Dhabi,جزيرة أبوظبى,Abu Dhabi Island,شرق 6,E6,6266568,,,6376,Eating and Drinking,30,Restaurant,32,54.36100578000003,24.489336009999988
291,40840,DED-3892,"Accommodation, Eating & Drinking",Eating & Drinking,Restaurant,مطعم زنجر هات - ذ.م.م,ZINGER HUT RESTAURANT - LLC,54.6756916,24.647583009999998,أبوظبي,Abu Dhabi,الصدر,Al Sader,الشاطئ الجديدة,Al Shatie Al Jadeedah,5638823,zingerhot@gmail.com,,78659,Eating and Drinking,30,Restaurant,32,54.67569159999999,24.647583010000005
292,40853,DED-4360,"Accommodation, Eating & Drinking",Eating & Drinking,Restaurant,مطعم تيستي بيتزا للوجبات السريعة,TASTEY PIZZA FAST FOOD RESTAURANT,55.86777115,24.07903481,العين,Al Ain,الظاهر,AL DHAHER,الظاهر 9,Dhaher 9,,,,,Eating and Drinking,30,Restaurant,32,55.86777115000001,24.079034809999996
293,40857,DED-4364,"Accommodation, Eating & Drinking",Eating & Drinking,Restaurant,مطعم مجيب,MUJEEB RESTAURANT,55.84479141,24.03654766,العين,Al Ain,مزيد,MEZYAD,مزيد 2,Meyzad 2,7821589,,,80107,Eating and Drinking,30,Restaurant,32,55.84479141000003,24.036547659999997
294,40858,DED-4365,"Accommodation, Eating & Drinking",Eating & Drinking,Restaurant,مطعم الشعاع الجديد,NEW ALSHUAA RESTAURANT,55.84486771,24.03625393,العين,Al Ain,مزيد,MEZYAD,مزيد 2,Meyzad 2,7821544,,7822326,20261,Eating and Drinking,30,Restaurant,32,55.84486771000002,24.036253929999987
295,40860,DED-4370,"Accommodation, Eating & Drinking",Eating & Drinking,Restaurant,مطعم سعيد محمد صالح,SAEED MOHAMMAD SALEH RESTAURANT,55.69199371,24.14770126,العين,Al Ain,زاخر,ZAKHIR,رملة زاخر,Ramlat Zakher,7828684,,,97136,Eating and Drinking,30,Restaurant,32,55.69199371000002,24.14770126000002
296,40861,DED-4371,"Accommodation, Eating & Drinking",Eating & Drinking,Restaurant,مطعم ابوغمران,ABU GHAMRAN RESTAURANT,55.92531395,24.15822792,العين,Al Ain,ملاقط,MALAGIT,ملاقط,Malagit,7300168,,,83282,Eating and Drinking,30,Restaurant,32,55.925313949999975,24.15822792
297,40862,DED-4725,"Accommodation, Eating & Drinking",Eating & Drinking,Restaurant,مطعم معين الحديث,MOEEN MODERN RESTAURANT,55.76309967,24.19139481,العين,Al Ain,المنطقة الصناعية,SANAIYA,الصفرة,Al Safrah,7220356,,,20175,Eating and Drinking,30,Restaurant,32,55.763099669999974,24.19139481000002
298,40863,DED-4726,"Accommodation, Eating & Drinking",Eating & Drinking,Restaurant,مطعم ابوسميرة,ABU SAMEERA RESTAURANT,55.76484299,24.19220352,العين,Al Ain,المنطقة الصناعية,SANAIYA,الصفرة,Al Safrah,7219488,,,69194,Eating and Drinking,30,Restaurant,32,55.76484298999998,24.19220352000002
299,40864,DED-4727,"Accommodation, Eating & Drinking",Eating & Drinking,Restaurant,مطعم الاعجاب,AL EJAB RESTAURANT,55.76328468,24.19190788,العين,Al Ain,المنطقة الصناعية,SANAIYA,الصفرة,Al Safrah,37210720,,,20064,Eating and Drinking,30,Restaurant,32,55.76328468000003,24.191907879999974
300,40865,DED-4728,"Accommodation, Eating & Drinking",Eating & Drinking,Restaurant,مطعم احمد على,AHMAD ALI RESTAURANT,55.76323891,24.19578171,العين,Al Ain,المنطقة الصناعية,SANAIYA,الصفرة,Al Safrah,7213068,,,66305,Eating and Drinking,30,Restaurant,32,55.763238909999984,24.195781710000006
301,40866,DED-4729,"Accommodation, Eating & Drinking",Eating & Drinking,Restaurant,مطعم الامير,AL AMIR RESTAURANT,55.76397896,24.19079781,العين,Al Ain,المنطقة الصناعية,SANAIYA,الصفرة,Al Safrah,7213621,,,82874,Eating and Drinking,30,Restaurant,32,55.763978959999974,24.190797809999992
302,40867,DED-4730,"Accommodation, Eating & Drinking",Eating & Drinking,Restaurant,مطعم الصناعية الممتاز,AL  SANAIYA AL MUMTAZ RESTAURANT,55.76573944,24.19481468,العين,Al Ain,المنطقة الصناعية,SANAIYA,الصفرة,Al Safrah,,,,63959,Eating and Drinking,30,Restaurant,32,55.765739440000004,24.19481467999998
303,40868,DED-4731,"Accommodation, Eating & Drinking",Eating & Drinking,Restaurant,مطعم الدهر,AL DAHR RESTAURANT,55.76298141,24.1940155,العين,Al Ain,المنطقة الصناعية,SANAIYA,الصفرة,Al Safrah,7210679,,,87803,Eating and Drinking,30,Restaurant,32,55.76298141000001,24.194015499999978
304,40869,DED-4732,"Accommodation, Eating & Drinking",Eating & Drinking,Restaurant,مطعم الفاتح,AL FATEH RESTAURANT,55.7646637,24.19417667,العين,Al Ain,المنطقة الصناعية,SANAIYA,الصفرة,Al Safrah,,,,81753,Eating and Drinking,30,Restaurant,32,55.76466370000003,24.19417666999999
305,40870,DED-4733,"Accommodation, Eating & Drinking",Eating & Drinking,Restaurant,مطعم عبدالعزيز - فرع,ABDULAZIZ RESTAURANT - BRANCH,55.76294327,24.18965626,العين,Al Ain,المنطقة الصناعية,SANAIYA,الصفرة,Al Safrah,7211601,,,16935,Eating and Drinking,30,Restaurant,32,55.762943269999994,24.189656259999992
306,40871,DED-4734,"Accommodation, Eating & Drinking",Eating & Drinking,Restaurant,مطعم عبدالعزيز,ABDULAZIZ RESTAURANT,55.76452446,24.19545937,العين,Al Ain,المنطقة الصناعية,SANAIYA,الصفرة,Al Safrah,7211225,,,19635,Eating and Drinking,30,Restaurant,32,55.76452446000002,24.19545936999998
307,40877,DED-5413,"Accommodation, Eating & Drinking",Eating & Drinking,Restaurant,مطعم قصر الحمراء,RED PALACE RESTAURANT,54.35447693,24.48415565,أبوظبي,Abu Dhabi,جزيرة أبوظبى,Abu Dhabi Island,غرب 2,W2,6313108,,,72981,Eating and Drinking,30,Restaurant,32,54.354476929999976,24.48415564999999
308,40878,DED-5414,"Accommodation, Eating & Drinking",Eating & Drinking,Restaurant,مطعم الجميرة,AL JUMAIRA RESTAURANT,54.35512543,24.48644352,أبوظبي,Abu Dhabi,جزيرة أبوظبى,Abu Dhabi Island,غرب 2,W2,6214605,,,72491,Eating and Drinking,30,Restaurant,32,54.35512542999999,24.486443520000023
309,40879,DED-5415,"Accommodation, Eating & Drinking",Eating & Drinking,Restaurant,مطعم ومشاوي دوكان  ذ.م.م,DUKAN RESTURANT &GRILLS L.L.C.,54.35453415,24.48671341,أبوظبي,Abu Dhabi,جزيرة أبوظبى,Abu Dhabi Island,غرب 2,W2,6339300,mbh_bros@emirates.net.ae,6339942,47605,Eating and Drinking,30,Restaurant,32,54.354534150000006,24.486713409999993
310,40880,DED-5416,"Accommodation, Eating & Drinking",Eating & Drinking,Restaurant,مطعم وحاتى ابوشقرة,ABU SHAQRA RESTAURANT,54.35396957,24.4863205,أبوظبي,Abu Dhabi,جزيرة أبوظبى,Abu Dhabi Island,غرب 2,W2,,,,,Eating and Drinking,30,Restaurant,32,54.353969570000004,24.486320499999977
311,40881,DED-5417,"Accommodation, Eating & Drinking",Eating & Drinking,Restaurant,مطعم  ذي أوفن,THE OVEN  RESTAURANT,54.35453508,24.4867134,أبوظبي,Abu Dhabi,جزيرة أبوظبى,Abu Dhabi Island,غرب 2,W2,,,,,Eating and Drinking,30,Restaurant,32,54.354535080000005,24.486713399999985
312,40883,DED-5566,"Accommodation, Eating & Drinking",Eating & Drinking,Restaurant,مطعم ركن التندوري - ذ.م.م,TANDOORI CORNER RESTAURANT - L.L.C,54.37918854,24.46195126,أبوظبي,Abu Dhabi,جزيرة أبوظبى,Abu Dhabi Island,شرق 20_2,E20_02,4458686,,,3576,Eating and Drinking,30,Restaurant,32,54.37918853999997,24.461951259999978
313,40890,DED-3921,"Accommodation, Eating & Drinking",Eating & Drinking,Restaurant,مطعم بيت القهوه الهندى ذ م م,INDIAN COFFE HOUSE RESTAURANT  LLC,54.40476608,24.44531631,أبوظبي,Abu Dhabi,جزيرة أبوظبى,Abu Dhabi Island,شرق 29,E29,4483235,,6747144,36698,Eating and Drinking,30,Restaurant,32,54.40476608,24.44531631000001
314,40891,DED-3922,"Accommodation, Eating & Drinking",Eating & Drinking,Restaurant,مطعم سلطانة,SULTANA RESTAURANT,54.40383339,24.4462204,أبوظبي,Abu Dhabi,جزيرة أبوظبى,Abu Dhabi Island,شرق 29,E29,4482343,,,95526,Eating and Drinking,30,Restaurant,32,54.40383338999999,24.446220400000016
315,40892,DED-3923,"Accommodation, Eating & Drinking",Eating & Drinking,Restaurant,مطعم كوهات,KOHAT  RESTAURANT,54.40362549,24.44507599,أبوظبي,Abu Dhabi,جزيرة أبوظبى,Abu Dhabi Island,شرق 29,E29,4485502,,,31658,Eating and Drinking,30,Restaurant,32,54.403625490000024,24.44507599000002
316,40893,DED-3924,"Accommodation, Eating & Drinking",Eating & Drinking,Restaurant,مطعم وجبات بوجوك,BOCHOG MEALS RESTURANT,54.40538025,24.44503975,أبوظبي,Abu Dhabi,جزيرة أبوظبى,Abu Dhabi Island,شرق 29,E29,,,,43879,Eating and Drinking,30,Restaurant,32,54.40538025000001,24.445039749999978
317,40894,DED-3943,"Accommodation, Eating & Drinking",Eating & Drinking,Restaurant,مطعم وكافتيريا نينار,NINAR RESTAURANT & CAFETERIA,54.36660004,24.49701405,أبوظبي,Abu Dhabi,جزيرة أبوظبى,Abu Dhabi Island,شرق 9_1,E9_01,6733161,,6731337,3118,Eating and Drinking,30,Restaurant,32,54.36660003999998,24.49701405000002
318,40896,DED-3946,"Accommodation, Eating & Drinking",Eating & Drinking,Restaurant,مطعم نيو بنجاب,NEW PUNJAB RESTAURANT,54.5176754,24.37285233,أبوظبي,Abu Dhabi,مصفح,Musaffah,مصفح  3,M3,4456700,,,105226,Eating and Drinking,30,Restaurant,32,54.51767539999997,24.37285233
319,40899,DED-4372,"Accommodation, Eating & Drinking",Eating & Drinking,Restaurant,مطعم فضة,SILVER RESTAURANT,55.6564579,24.54547882,العين,Al Ain,الهير,AL HAYER,الغَشْبَه,Al Ghashbah,7645724,,,22202,Eating and Drinking,30,Restaurant,32,55.65645790000002,24.545478820000028
320,40905,DED-4378,"Accommodation, Eating & Drinking",Eating & Drinking,Restaurant,مطعم الوادي,AL WADI RESTAURANT,55.56233978,24.22625351,العين,Al Ain,اليحر,AL YAHAR,الرفاعة,Al Rifaa,7815168,,7815662,1118,Eating and Drinking,30,Restaurant,32,55.56233978,24.226253509999992
321,40906,DED-4379,"Accommodation, Eating & Drinking",Eating & Drinking,Restaurant,مطعم نور العين,NOOR AL AIN RESTAURANT,55.5633564,24.23214722,العين,Al Ain,اليحر,AL YAHAR,الرفاعة,Al Rifaa,7816430,,,85691,Eating and Drinking,30,Restaurant,32,55.563356399999975,24.23214722
322,40907,DED-4380,"Accommodation, Eating & Drinking",Eating & Drinking,Restaurant,مطعم ارض الياسمين,JASMIN LAND  RESTAURANT,55.56042862,24.23059845,العين,Al Ain,اليحر,AL YAHAR,الرفاعة,Al Rifaa,,AIN282111@abudhabi.net.ae,,200049,Eating and Drinking,30,Restaurant,32,55.56042861999998,24.230598450000002
323,40916,DED-4750,"Accommodation, Eating & Drinking",Eating & Drinking,Restaurant,مطعم ومعجنات الميدان  ذ.م.م,AL MEDAN RESTAURANT  & PASTERY L.L.C.,55.72623444,24.18333817,العين,Al Ain,فلج هزاع,FALAJ HAZZA,الجفير الجديد,Jefeer Jedeed,7820118,matar_gr@eim.ae,7555510,,Eating and Drinking,30,Restaurant,32,55.726234439999985,24.183338170000013
324,40917,DED-4751,"Accommodation, Eating & Drinking",Eating & Drinking,Restaurant,مطعم وكافتيريا لولو - فرع,LULU RESTAURANT AND CAFETERIA - BRANCH,55.72673416,24.18305111,العين,Al Ain,فلج هزاع,FALAJ HAZZA,الجفير الجديد,Jefeer Jedeed,7828893,,,18632,Eating and Drinking,30,Restaurant,32,55.72673415999998,24.183051110000008
325,40919,DED-4753,"Accommodation, Eating & Drinking",Eating & Drinking,Restaurant,مطعم وكافتيريا الباز,AL BAZ RESTAURANT AND CAFETERIA,55.74516678,24.21883488,العين,Al Ain,المعترض,AL MUTAREDH,الجزعة,Al Jizza,7546800,,7550820,15325,Eating and Drinking,30,Restaurant,32,55.74516677999998,24.218834879999974
326,40920,DED-4754,"Accommodation, Eating & Drinking",Eating & Drinking,Restaurant,مطعم آدم,ADAM RESTAURANT,55.74516678,24.21883488,العين,Al Ain,المعترض,AL MUTAREDH,الجزعة,Al Jizza,7557039,,,14317,Eating and Drinking,30,Restaurant,32,55.74516677999998,24.218834879999974
327,40924,DED-4758,"Accommodation, Eating & Drinking",Eating & Drinking,Restaurant,مطعم عشارج,ASHAREJ RESTAURANT,55.69674492,24.1509037,العين,Al Ain,زاخر,ZAKHIR,الصويفي,Al Swuaifi,7811210,,,64935,Eating and Drinking,30,Restaurant,32,55.696744920000015,24.150903700000015
328,40925,DED-5620,"Accommodation, Eating & Drinking",Eating & Drinking,Restaurant,مطعم اليمن السعيد,HAPPY YEMEN RESTAURANT,54.39082336,24.44969559,أبوظبي,Abu Dhabi,جزيرة أبوظبى,Abu Dhabi Island,شرق 23,E23,4452412,,,4073,Eating and Drinking,30,Restaurant,32,54.39082336000001,24.449695589999976
329,40931,DED-5737,"Accommodation, Eating & Drinking",Eating & Drinking,Restaurant,مطعم شريفة,SHAREEFA RESTAURANT,54.38415589,24.45680576,أبوظبي,Abu Dhabi,جزيرة أبوظبى,Abu Dhabi Island,شرق 22,E22,4456483,,,27688,Eating and Drinking,30,Restaurant,32,54.38415588999999,24.45680576000001
330,40957,DED-4392,"Accommodation, Eating & Drinking",Eating & Drinking,Restaurant,مطعم مضاوي للمأكولات الشعبية,MEDHAWI POPULAR MEALS RESTURANT,55.54854393,24.22369766,العين,Al Ain,اليحر,AL YAHAR,الواحة العامرة,Al Waha Al Amirah,7814899,alking2010@hotmail.com,,22446,Eating and Drinking,30,Restaurant,32,55.548543929999994,24.223697660000028
331,40958,DED-4393,"Accommodation, Eating & Drinking",Eating & Drinking,Restaurant,مطعم طيبه,TAIBA RESTAURANT,55.54095078,24.22036171,العين,Al Ain,اليحر,AL YAHAR,الواحة العامرة,Al Waha Al Amirah,7814956,,,22361,Eating and Drinking,30,Restaurant,32,55.54095078,24.22036171000002
